[
 {
  "storeType": "Store",
  "type": "Small Format",
  "tNumber": "T3327",
  "neighborhood": "Seattle Ballard",
  "address": "1448 NW Market St, Ste 100",
  "city": "Seattle",
  "country": "United States of America",
  "mailCode": "US",
  "county": "King",
  "intersectionDesc": "Market St & 15th Ave",
  "postal": 98107,
  "postalZip": 1743,
  "quadrant": "NEC",
  "quadrantDesc": "NorthEast Corner",
  "state": "WA",
  "latitude": 47.668911,
  "longitude": -122.375774,
  "timezone": "PST"
 },
 {
  "storeType": "Store",
  "type": "Small Format",
  "tNumber": "T3407",
  "neighborhood": "Moscow West Pullman Road",
  "address": "2132 W Pullman Rd",
  "city": "Moscow",
  "country": "United States of America",
  "mailCode": "US",
  "county": "Latah",
  "intersectionDesc": "Pullman Rd and Farm Rd",
  "postal": 83843,
  "postalZip": 4011,
  "quadrant": "NWC",
  "quadrantDesc": "NorthWest Corner",
  "state": "ID",
  "latitude": 46.734048,
  "longitude": -117.031286,
  "timezone": "PST"
 },
 {
  "storeType": "Store",
  "type": "Small Format",
  "tNumber": "T3275",
  "neighborhood": "Bellevue 4th St and 116th Ave",
  "address": "272 116th Ave NE",
  "city": "Bellevue",
  "country": "United States of America",
  "mailCode": "US",
  "county": "King",
  "intersectionDesc": "116th Ave NE and NE 4th St",
  "postal": 98004,
  "postalZip": 5213,
  "quadrant": "SEC",
  "quadrantDesc": "SouthEast Corner",
  "state": "WA",
  "latitude": 47.612535,
  "longitude": -122.184601,
  "timezone": "PST"
 },
 {
  "storeType": "Store",
  "type": "Small Format",
  "tNumber": "T3413",
  "neighborhood": "Cedar Mill",
  "address": "12675 NW Cornell Rd",
  "city": "Portland",
  "country": "United States of America",
  "mailCode": "US",
  "county": "Washington",
  "intersectionDesc": "NW Cornell Rd & NW Saltzman Rd",
  "postal": 97229,
  "postalZip": 5886,
  "quadrant": "NWC",
  "quadrantDesc": "NorthWest Corner",
  "state": "OR",
  "latitude": 45.526053,
  "longitude": -122.808099,
  "timezone": "PST"
 },
 {
  "storeType": "Store",
  "type": "Small Format",
  "tNumber": "T3281",
  "neighborhood": "Portland Powell",
  "address": "3031 SE Powell Blvd",
  "city": "Portland",
  "country": "United States of America",
  "mailCode": "US",
  "county": "Multnomah",
  "intersectionDesc": "Powell Blvd & 31st Ave",
  "postal": 97202,
  "postalZip": 1955,
  "quadrant": "NWC",
  "quadrantDesc": "NorthWest Corner",
  "state": "OR",
  "latitude": 45.497495,
  "longitude": -122.634097,
  "timezone": "PST"
 },
 {
  "storeType": "Store",
  "type": "Small Format",
  "tNumber": "T3358",
  "neighborhood": "Portland Hollywood",
  "address": "4030 NE Halsey St",
  "city": "Portland",
  "country": "United States of America",
  "mailCode": "US",
  "county": "Multnomah",
  "intersectionDesc": "I-84 & NE Cesar E Chavez Blvd",
  "postal": 97232,
  "postalZip": 1833,
  "quadrant": "NEC",
  "quadrantDesc": "NorthEast Corner",
  "state": "OR",
  "latitude": 45.533679,
  "longitude": -122.621578,
  "timezone": "PST"
 },
 {
  "storeType": "Store",
  "type": "Small Format",
  "tNumber": "T3286",
  "neighborhood": "Seattle University Way",
  "address": "4535 University Way NE",
  "city": "Seattle",
  "country": "United States of America",
  "mailCode": "US",
  "county": "King",
  "intersectionDesc": "University Way NE between 45th St & 47th St",
  "postal": 98105,
  "postalZip": 4510,
  "quadrant": "NWC",
  "quadrantDesc": "NorthWest Corner",
  "state": "WA",
  "latitude": 47.662326,
  "longitude": -122.313442,
  "timezone": "PST"
 },
 {
  "storeType": "Store",
  "type": "Small Format",
  "tNumber": "T3381",
  "neighborhood": "Portland Galleria",
  "address": "939 SW Morrison St",
  "city": "Portland",
  "country": "United States of America",
  "mailCode": "US",
  "county": "Multnomah",
  "intersectionDesc": "Morrison St & SW 10th Ave",
  "postal": 97205,
  "postalZip": 2727,
  "quadrant": "NEC",
  "quadrantDesc": "NorthEast Corner",
  "state": "OR",
  "latitude": 45.520127,
  "longitude": -122.68181,
  "timezone": "PST"
 },
 {
  "storeType": "Virtual or Dummy STR",
  "type": "Fulfillment Center at Store",
  "tNumber": "T3013",
  "neighborhood": "TARGET.COM ALBANY TFC FC STR",
  "address": "875 Beta Dr SW",
  "city": "Albany",
  "country": "United States of America",
  "mailCode": "US",
  "county": "Linn",
  "postal": 97321,
  "postalZip": 3714,
  "state": "OR",
  "latitude": 44.5776,
  "longitude": -123.109,
  "timezone": "PST"
 },
 {
  "storeType": "Store",
  "type": "General Merchandise",
  "tNumber": "T2371",
  "neighborhood": "Anchorage NE",
  "address": "1200 N Muldoon Rd",
  "location.address.2": "Ste F",
  "city": "Anchorage",
  "country": "United States of America",
  "mailCode": "US",
  "county": "Anchorage Municipality",
  "intersectionDesc": "Muldoon Rd & Glen Hwy",
  "postal": 99504,
  "postalZip": 6103,
  "quadrant": "NWC",
  "quadrantDesc": "NorthWest Corner",
  "state": "AK",
  "latitude": 61.226817,
  "longitude": -149.745678,
  "timezone": "AKST"
 },
 {
  "storeType": "Store",
  "type": "General Merchandise",
  "tNumber": "T2857",
  "neighborhood": "Spokane South",
  "address": "4915 S Regal St",
  "city": "Spokane",
  "country": "United States of America",
  "mailCode": "US",
  "county": "Spokane",
  "intersectionDesc": "S Regal St & E Palouse Hwy",
  "postal": 99223,
  "postalZip": 7633,
  "quadrant": "SEC",
  "quadrantDesc": "SouthEast Corner",
  "state": "WA",
  "latitude": 47.6096,
  "longitude": -117.365,
  "timezone": "PST"
 },
 {
  "storeType": "Store",
  "type": "General Merchandise",
  "tNumber": "T0348",
  "neighborhood": "Bellingham",
  "address": "30 Bellis Fair Pkwy",
  "city": "Bellingham",
  "country": "United States of America",
  "mailCode": "US",
  "county": "Whatcom",
  "intersectionDesc": "I-5 & Meridan St",
  "postal": 98226,
  "postalZip": 5573,
  "quadrant": "NWC",
  "quadrantDesc": "NorthWest Corner",
  "state": "WA",
  "latitude": 48.786495,
  "longitude": -122.493602,
  "timezone": "PST"
 },
 {
  "storeType": "Store",
  "type": "General Merchandise",
  "tNumber": "T1540",
  "neighborhood": "Kalispell",
  "address": "2365 US Highway 93 N",
  "city": "Kalispell",
  "country": "United States of America",
  "mailCode": "US",
  "county": "Flathead",
  "intersectionDesc": "US 93 & W Reserve Rd",
  "postal": 59901,
  "postalZip": 2558,
  "quadrant": "SEC",
  "quadrantDesc": "SouthEast Corner",
  "state": "MT",
  "latitude": 48.235975,
  "longitude": -114.326737,
  "timezone": "MST"
 },
 {
  "storeType": "Store",
  "type": "General Merchandise",
  "tNumber": "T0830",
  "neighborhood": "Kennewick",
  "address": "1106 N Columbia Center Blvd",
  "city": "Kennewick",
  "country": "United States of America",
  "mailCode": "US",
  "county": "Benton",
  "intersectionDesc": "Columbia Ctr & Quinault",
  "postal": 99336,
  "postalZip": 1161,
  "quadrant": "SEC",
  "quadrantDesc": "SouthEast Corner",
  "state": "WA",
  "latitude": 46.221915,
  "longitude": -119.22201,
  "timezone": "PST"
 },
 {
  "storeType": "Store",
  "type": "General Merchandise",
  "tNumber": "T2314",
  "neighborhood": "Richland",
  "address": "2941 Queensgate Dr",
  "city": "Richland",
  "country": "United States of America",
  "mailCode": "US",
  "county": "Benton",
  "location.mail_lot_and_block_t": "North of US 12\/182 at Queensgate Dr & Kennedy Rd",
  "postal": 99352,
  "postalZip": 9101,
  "state": "WA",
  "latitude": 46.258391,
  "longitude": -119.313294,
  "timezone": "PST"
 },
 {
  "storeType": "Store",
  "type": "General Merchandise",
  "tNumber": "T1064",
  "neighborhood": "Wenatchee",
  "address": "1102 Springwater Ave",
  "city": "Wenatchee",
  "country": "United States of America",
  "mailCode": "US",
  "county": "Chelan",
  "intersectionDesc": "Miller St & Springwater",
  "postal": 98801,
  "postalZip": 1548,
  "quadrant": "NWC",
  "quadrantDesc": "NorthWest Corner",
  "state": "WA",
  "latitude": 47.438438,
  "longitude": -120.327383,
  "timezone": "PST"
 },
 {
  "storeType": "Store",
  "type": "General Merchandise",
  "tNumber": "T0343",
  "neighborhood": "Vancouver",
  "address": "7809C NE Vancouver Plaza Dr",
  "city": "Vancouver",
  "country": "United States of America",
  "mailCode": "US",
  "county": "Clark",
  "intersectionDesc": "SR 500 & NE Thurston",
  "postal": 98662,
  "postalZip": 6624,
  "quadrant": "SWC",
  "quadrantDesc": "SouthWest Corner",
  "state": "WA",
  "latitude": 45.650676,
  "longitude": -122.591779,
  "timezone": "PST"
 },
 {
  "storeType": "Store",
  "type": "General Merchandise",
  "tNumber": "T2192",
  "neighborhood": "Marysville",
  "address": "16818 Twin Lakes Ave",
  "city": "Marysville",
  "country": "United States of America",
  "mailCode": "US",
  "county": "Snohomish",
  "intersectionDesc": "I-5 & 172nd St NE",
  "postal": 98271,
  "postalZip": 4724,
  "quadrant": "SWC",
  "quadrantDesc": "SouthWest Corner",
  "state": "WA",
  "latitude": 48.149416,
  "longitude": -122.192027,
  "timezone": "PST"
 },
 {
  "storeType": "Store",
  "type": "General Merchandise",
  "tNumber": "T0696",
  "neighborhood": "Burlington",
  "address": "199 Cascade Mall Dr",
  "city": "Burlington",
  "country": "United States of America",
  "mailCode": "US",
  "county": "Skagit",
  "intersectionDesc": "Gilkey Rd & I-5",
  "postal": 98233,
  "postalZip": 3251,
  "quadrant": "NEC",
  "quadrantDesc": "NorthEast Corner",
  "state": "WA",
  "latitude": 48.465356,
  "longitude": -122.338606,
  "timezone": "PST"
 },
 {
  "storeType": "Store",
  "type": "General Merchandise",
  "tNumber": "T0766",
  "neighborhood": "Bend",
  "address": "63435 N Highway 97",
  "city": "Bend",
  "country": "United States of America",
  "mailCode": "US",
  "county": "Deschutes",
  "intersectionDesc": "Hwy 97 & Robal Lane",
  "postal": 97703,
  "postalZip": 7802,
  "quadrant": "NWC",
  "quadrantDesc": "NorthWest Corner",
  "state": "OR",
  "latitude": 44.103817,
  "longitude": -121.300516,
  "timezone": "PST"
 },
 {
  "storeType": "Store",
  "type": "General Merchandise",
  "tNumber": "T1444",
  "neighborhood": "Vancouver East",
  "address": "16200 SE Mill Plain Blvd",
  "city": "Vancouver",
  "country": "United States of America",
  "mailCode": "US",
  "county": "Clark",
  "intersectionDesc": "164th Ave & Mill Plain Rd",
  "postal": 98684,
  "postalZip": 9638,
  "quadrant": "NWC",
  "quadrantDesc": "NorthWest Corner",
  "state": "WA",
  "latitude": 45.616707,
  "longitude": -122.505134,
  "timezone": "PST"
 },
 {
  "storeType": "Store",
  "type": "General Merchandise",
  "tNumber": "T1405",
  "neighborhood": "Eugene",
  "address": "4575 W 11th Ave",
  "city": "Eugene",
  "country": "United States of America",
  "mailCode": "US",
  "county": "Lane",
  "intersectionDesc": "W 11th Ave & Beltline Rd",
  "postal": 97402,
  "postalZip": 5442,
  "quadrant": "NEC",
  "quadrantDesc": "NorthEast Corner",
  "state": "OR",
  "latitude": 44.049357,
  "longitude": -123.170785,
  "timezone": "PST"
 },
 {
  "storeType": "Store",
  "type": "General Merchandise",
  "tNumber": "T1282",
  "neighborhood": "Helena",
  "address": "3303 N Montana Ave",
  "city": "Helena",
  "country": "United States of America",
  "mailCode": "US",
  "county": "Lewis and Clark",
  "intersectionDesc": "Montana Ave & Custer Ave",
  "postal": 59602,
  "postalZip": 7817,
  "quadrant": "NEC",
  "quadrantDesc": "NorthEast Corner",
  "state": "MT",
  "latitude": 46.621295,
  "longitude": -112.019278,
  "timezone": "MST"
 },
 {
  "storeType": "Store",
  "type": "General Merchandise",
  "tNumber": "T2110",
  "neighborhood": "Keizer",
  "address": "6450 Keizer Station Blvd NE",
  "city": "Keizer",
  "country": "United States of America",
  "mailCode": "US",
  "county": "Marion",
  "intersectionDesc": "I-5 & Chemawa Rd",
  "postal": 97303,
  "postalZip": 1695,
  "quadrant": "NWC",
  "quadrantDesc": "NorthWest Corner",
  "state": "OR",
  "latitude": 45.012261,
  "longitude": -122.995054,
  "timezone": "PST"
 },
 {
  "storeType": "Store",
  "type": "General Merchandise",
  "tNumber": "T0760",
  "neighborhood": "Yakima",
  "address": "12 N Fair Ave",
  "city": "Yakima",
  "country": "United States of America",
  "mailCode": "US",
  "county": "Yakima",
  "intersectionDesc": "Yakima Ave & I-82\/US 97",
  "postal": 98901,
  "postalZip": 4520,
  "quadrant": "NWC",
  "quadrantDesc": "NorthWest Corner",
  "state": "WA",
  "latitude": 46.606678,
  "longitude": -120.490059,
  "timezone": "PST"
 },
 {
  "storeType": "Store",
  "type": "General Merchandise",
  "tNumber": "T0915",
  "neighborhood": "Spokane Valley",
  "address": "13724 E Sprague Ave",
  "city": "Spokane",
  "country": "United States of America",
  "mailCode": "US",
  "county": "Spokane",
  "intersectionDesc": "Sprague & Evergreen Road",
  "postal": 99216,
  "postalZip": 812,
  "quadrant": "SWC",
  "quadrantDesc": "SouthWest Corner",
  "state": "WA",
  "latitude": 47.656051,
  "longitude": -117.219974,
  "timezone": "PST"
 },
 {
  "storeType": "Store",
  "type": "General Merchandise",
  "tNumber": "T0342",
  "neighborhood": "Puyallup",
  "address": "3310 S Meridian",
  "city": "Puyallup",
  "country": "United States of America",
  "mailCode": "US",
  "county": "Pierce",
  "intersectionDesc": "Meridan St & 112st St E",
  "postal": 98373,
  "postalZip": 3777,
  "quadrant": "NWC",
  "quadrantDesc": "NorthWest Corner",
  "state": "WA",
  "latitude": 47.159345,
  "longitude": -122.295164,
  "timezone": "PST"
 },
 {
  "storeType": "Store",
  "type": "General Merchandise",
  "tNumber": "T0341",
  "neighborhood": "North Tacoma",
  "address": "3320 S 23rd St",
  "city": "Tacoma",
  "country": "United States of America",
  "mailCode": "US",
  "county": "Pierce",
  "intersectionDesc": "Union Ave & Hwy 16",
  "postal": 98405,
  "postalZip": 1603,
  "quadrant": "NEC",
  "quadrantDesc": "NorthEast Corner",
  "state": "WA",
  "latitude": 47.237213,
  "longitude": -122.479943,
  "timezone": "PST"
 },
 {
  "storeType": "Store",
  "type": "General Merchandise",
  "tNumber": "T0346",
  "neighborhood": "Clackamas",
  "address": "9000 SE Sunnyside Rd",
  "city": "Clackamas",
  "country": "United States of America",
  "mailCode": "US",
  "county": "Clackamas",
  "intersectionDesc": "90th & Sunnyside Rd",
  "postal": 97015,
  "postalZip": 9758,
  "quadrant": "SEC",
  "quadrantDesc": "SouthEast Corner",
  "state": "OR",
  "latitude": 45.431404,
  "longitude": -122.57081,
  "timezone": "PST"
 },
 {
  "storeType": "Store",
  "type": "General Merchandise",
  "tNumber": "T0608",
  "neighborhood": "Salem",
  "address": "3790 Center St NE",
  "city": "Salem",
  "country": "United States of America",
  "mailCode": "US",
  "county": "Marion",
  "intersectionDesc": "Center & Morgan",
  "postal": 97301,
  "postalZip": 2905,
  "quadrant": "SWC",
  "quadrantDesc": "SouthWest Corner",
  "state": "OR",
  "latitude": 44.938881,
  "longitude": -122.986751,
  "timezone": "PST"
 },
 {
  "storeType": "Store",
  "type": "General Merchandise",
  "tNumber": "T2786",
  "neighborhood": "Seattle Pike Plaza",
  "address": "1401 2nd Ave",
  "city": "Seattle",
  "country": "United States of America",
  "mailCode": "US",
  "county": "King",
  "intersectionDesc": "Pike Street & 2nd Avenue",
  "postal": 98101,
  "postalZip": 2007,
  "quadrant": "SWC",
  "quadrantDesc": "SouthWest Corner",
  "state": "WA",
  "latitude": 47.608941,
  "longitude": -122.339058,
  "timezone": "PST"
 },
 {
  "storeType": "Store",
  "type": "General Merchandise",
  "tNumber": "T0253",
  "neighborhood": "Great Falls",
  "address": "2000 10th Ave S",
  "city": "Great Falls",
  "country": "United States of America",
  "mailCode": "US",
  "county": "Cascade",
  "intersectionDesc": "US Hwy 89 & 20th St S",
  "postal": 59405,
  "postalZip": 2753,
  "quadrant": "SEC",
  "quadrantDesc": "SouthEast Corner",
  "state": "MT",
  "latitude": 47.493381,
  "longitude": -111.271312,
  "timezone": "MST"
 },
 {
  "storeType": "Store",
  "type": "General Merchandise",
  "tNumber": "T1230",
  "neighborhood": "Boise Eagle Road",
  "address": "6280 N Eagle Rd",
  "city": "Boise",
  "country": "United States of America",
  "mailCode": "US",
  "county": "Ada",
  "intersectionDesc": "Eagle Rd & Chinden Blvd",
  "postal": 83713,
  "postalZip": 955,
  "quadrant": "SEC",
  "quadrantDesc": "SouthEast Corner",
  "state": "ID",
  "latitude": 43.661723,
  "longitude": -116.352417,
  "timezone": "MST"
 },
 {
  "storeType": "Store",
  "type": "General Merchandise",
  "tNumber": "T0637",
  "neighborhood": "West Seattle",
  "address": "2800 SW Barton St",
  "city": "Seattle",
  "country": "United States of America",
  "mailCode": "US",
  "county": "King",
  "intersectionDesc": "SW Barton St & 26th Ave SW",
  "postal": 98126,
  "postalZip": 3975,
  "quadrant": "NWC",
  "quadrantDesc": "NorthWest Corner",
  "state": "WA",
  "latitude": 47.521889,
  "longitude": -122.368834,
  "timezone": "PST"
 },
 {
  "storeType": "Store",
  "type": "General Merchandise",
  "tNumber": "T1331",
  "neighborhood": "Lake Stevens",
  "address": "9601 Market Pl",
  "city": "Lake Stevens",
  "country": "United States of America",
  "mailCode": "US",
  "county": "Snohomish",
  "intersectionDesc": "Hwy 9 & Meridian St",
  "postal": 98258,
  "postalZip": 7949,
  "quadrant": "NEC",
  "quadrantDesc": "NorthEast Corner",
  "state": "WA",
  "latitude": 47.998684,
  "longitude": -122.101909,
  "timezone": "PST"
 },
 {
  "storeType": "Store",
  "type": "General Merchandise",
  "tNumber": "T1118",
  "neighborhood": "Woodinville",
  "address": "13950 NE 178th Pl",
  "location.address.2": "Ste. 100",
  "city": "Woodinville",
  "country": "United States of America",
  "mailCode": "US",
  "county": "King",
  "intersectionDesc": "NE 175th St & 140th Ave NE",
  "postal": 98072,
  "postalZip": 3523,
  "quadrant": "NWC",
  "quadrantDesc": "NorthWest Corner",
  "state": "WA",
  "latitude": 47.758916,
  "longitude": -122.154601,
  "timezone": "PST"
 },
 {
  "storeType": "Store",
  "type": "General Merchandise",
  "tNumber": "T0349",
  "neighborhood": "Lakewood",
  "address": "5618 Lakewood Town Center Blvd SW",
  "city": "Lakewood",
  "country": "United States of America",
  "mailCode": "US",
  "county": "Pierce",
  "intersectionDesc": "Gravelly Lk Dr & Wildaire Ct SW",
  "postal": 98499,
  "postalZip": 3894,
  "quadrant": "NEC",
  "quadrantDesc": "NorthEast Corner",
  "state": "WA",
  "latitude": 47.163639,
  "longitude": -122.511782,
  "timezone": "PST"
 },
 {
  "storeType": "Store",
  "type": "General Merchandise",
  "tNumber": "T1284",
  "neighborhood": "Northgate",
  "address": "302 NE Northgate Way",
  "city": "Seattle",
  "country": "United States of America",
  "mailCode": "US",
  "county": "King",
  "intersectionDesc": "Northgate Way & 5th Ave NE",
  "postal": 98125,
  "postalZip": 6047,
  "quadrant": "NWC",
  "quadrantDesc": "NorthWest Corner",
  "state": "WA",
  "latitude": 47.70897,
  "longitude": -122.325012,
  "timezone": "PST"
 },
 {
  "storeType": "Store",
  "type": "General Merchandise",
  "tNumber": "T2779",
  "neighborhood": "Portland NW",
  "address": "1555 N Tomahawk Island Dr",
  "city": "Portland",
  "country": "United States of America",
  "mailCode": "US",
  "county": "Multnomah",
  "intersectionDesc": "North Hayden Island Dr & North Center Ave",
  "postal": 97217,
  "postalZip": 8296,
  "quadrant": "SWC",
  "quadrantDesc": "SouthWest Corner",
  "state": "OR",
  "latitude": 45.612967,
  "longitude": -122.682361,
  "timezone": "PST"
 },
 {
  "storeType": "Store",
  "type": "General Merchandise",
  "tNumber": "T1947",
  "neighborhood": "Federal Way",
  "address": "2201 S Commons",
  "city": "Federal Way",
  "country": "United States of America",
  "mailCode": "US",
  "county": "King",
  "intersectionDesc": "Hwy 99 & S. 320 St",
  "postal": 98003,
  "postalZip": 6023,
  "quadrant": "SEC",
  "quadrantDesc": "SouthEast Corner",
  "state": "WA",
  "latitude": 47.313592,
  "longitude": -122.305539,
  "timezone": "PST"
 },
 {
  "storeType": "Store",
  "type": "General Merchandise",
  "tNumber": "T2339",
  "neighborhood": "Wasilla",
  "address": "1801 E Parks Hwy",
  "city": "Wasilla",
  "country": "United States of America",
  "mailCode": "US",
  "county": "Matanuska-Susitna Borough",
  "intersectionDesc": "E Parks Hwy & Palmer-Wasilla Hwy",
  "postal": 99654,
  "postalZip": 7350,
  "quadrant": "NEC",
  "quadrantDesc": "NorthEast Corner",
  "state": "AK",
  "latitude": 61.578202,
  "longitude": -149.404066,
  "timezone": "AKST"
 },
 {
  "storeType": "Store",
  "type": "General Merchandise",
  "tNumber": "T1406",
  "neighborhood": "Fairview",
  "address": "21500 NE Halsey St",
  "city": "Fairview",
  "country": "United States of America",
  "mailCode": "US",
  "county": "Multnomah",
  "intersectionDesc": "Halsey St & 207th Ave",
  "postal": 97024,
  "postalZip": 8616,
  "quadrant": "SEC",
  "quadrantDesc": "SouthEast Corner",
  "state": "OR",
  "latitude": 45.532785,
  "longitude": -122.442144,
  "timezone": "PST"
 },
 {
  "storeType": "Store",
  "type": "General Merchandise",
  "tNumber": "T0339",
  "neighborhood": "Factoria",
  "address": "4053 Factoria Square Mall SE",
  "city": "Bellevue",
  "country": "United States of America",
  "mailCode": "US",
  "county": "King",
  "intersectionDesc": "128th Ave SE & SE 38th Pl",
  "postal": 98006,
  "postalZip": 1286,
  "quadrant": "SWC",
  "quadrantDesc": "SouthWest Corner",
  "state": "WA",
  "latitude": 47.574202,
  "longitude": -122.172947,
  "timezone": "PST"
 },
 {
  "storeType": "Store",
  "type": "General Merchandise",
  "tNumber": "T0345",
  "neighborhood": "Washington Square",
  "address": "9009 SW Hall Blvd",
  "city": "Tigard",
  "country": "United States of America",
  "mailCode": "US",
  "county": "Washington",
  "intersectionDesc": "Hall Blvd & Schools Ferry Rd",
  "postal": 97223,
  "postalZip": 4432,
  "quadrant": "SEC",
  "quadrantDesc": "SouthEast Corner",
  "state": "OR",
  "latitude": 45.454165,
  "longitude": -122.779459,
  "timezone": "PST"
 },
 {
  "storeType": "Store",
  "type": "General Merchandise",
  "tNumber": "T0995",
  "neighborhood": "Redmond",
  "address": "17700 NE 76th St",
  "city": "Redmond",
  "country": "United States of America",
  "mailCode": "US",
  "county": "King",
  "intersectionDesc": "Rte 202 & 520",
  "postal": 98052,
  "postalZip": 3300,
  "quadrant": "NEC",
  "quadrantDesc": "NorthEast Corner",
  "state": "WA",
  "latitude": 47.672424,
  "longitude": -122.104025,
  "timezone": "PST"
 },
 {
  "storeType": "Store",
  "type": "General Merchandise",
  "tNumber": "T2206",
  "neighborhood": "Nampa",
  "address": "16300 N Market Place Blvd",
  "city": "Nampa",
  "country": "United States of America",
  "mailCode": "US",
  "county": "Canyon",
  "intersectionDesc": "Midland Rd & Karcher Rd",
  "postal": 83687,
  "postalZip": 7910,
  "quadrant": "NEC",
  "quadrantDesc": "NorthEast Corner",
  "state": "ID",
  "latitude": 43.610162,
  "longitude": -116.589454,
  "timezone": "MST"
 },
 {
  "storeType": "Store",
  "type": "General Merchandise",
  "tNumber": "T0337",
  "neighborhood": "Everett",
  "address": "405 SE Everett Mall Way",
  "city": "Everett",
  "country": "United States of America",
  "mailCode": "US",
  "county": "Snohomish",
  "intersectionDesc": "Everett Mall Way & 3rd Ave",
  "postal": 98208,
  "postalZip": 3243,
  "quadrant": "NEC",
  "quadrantDesc": "NorthEast Corner",
  "state": "WA",
  "latitude": 47.910051,
  "longitude": -122.226784,
  "timezone": "PST"
 },
 {
  "storeType": "Store",
  "type": "General Merchandise",
  "tNumber": "T0628",
  "neighborhood": "Kelso",
  "address": "205 Three Rivers Dr",
  "city": "Kelso",
  "country": "United States of America",
  "mailCode": "US",
  "county": "Cowlitz",
  "intersectionDesc": "I-5 & Allen St",
  "postal": 98626,
  "postalZip": 3127,
  "quadrant": "SWC",
  "quadrantDesc": "SouthWest Corner",
  "state": "WA",
  "latitude": 46.142714,
  "longitude": -122.899321,
  "timezone": "PST"
 },
 {
  "storeType": "Store",
  "type": "General Merchandise",
  "tNumber": "T0636",
  "neighborhood": "North Spokane",
  "address": "9770 N Newport Hwy",
  "city": "Spokane",
  "country": "United States of America",
  "mailCode": "US",
  "county": "Spokane",
  "intersectionDesc": "E Hawthorne & Hwy 2",
  "postal": 99218,
  "postalZip": 1249,
  "quadrant": "SEC",
  "quadrantDesc": "SouthEast Corner",
  "state": "WA",
  "latitude": 47.747573,
  "longitude": -117.400259,
  "timezone": "PST"
 },
 {
  "storeType": "Store",
  "type": "General Merchandise",
  "tNumber": "T0362",
  "neighborhood": "Hillsboro",
  "address": "2295 SE Tualatin Valley Hwy",
  "city": "Hillsboro",
  "country": "United States of America",
  "mailCode": "US",
  "county": "Washington",
  "intersectionDesc": "Tualatin Valley & 21st Ave",
  "postal": 97123,
  "postalZip": 7915,
  "quadrant": "NEC",
  "quadrantDesc": "NorthEast Corner",
  "state": "OR",
  "latitude": 45.507197,
  "longitude": -122.957016,
  "timezone": "PST"
 },
 {
  "storeType": "Store",
  "type": "General Merchandise",
  "tNumber": "T0996",
  "neighborhood": "Issaquah",
  "address": "755 NW Gilman Blvd",
  "city": "Issaquah",
  "country": "United States of America",
  "mailCode": "US",
  "county": "King",
  "intersectionDesc": "Gilman Blvd & 7th Ave NW",
  "postal": 98027,
  "postalZip": 5357,
  "quadrant": "SWC",
  "quadrantDesc": "SouthWest Corner",
  "state": "WA",
  "latitude": 47.542208,
  "longitude": -122.050874,
  "timezone": "PST"
 },
 {
  "storeType": "Store",
  "type": "General Merchandise",
  "tNumber": "T1355",
  "neighborhood": "Lacey",
  "address": "665 Sleater Kinney Rd SE",
  "city": "Lacey",
  "country": "United States of America",
  "mailCode": "US",
  "county": "Thurston",
  "intersectionDesc": "Sleater-Kinney Rd & I-15",
  "postal": 98503,
  "postalZip": 1007,
  "quadrant": "SWC",
  "quadrantDesc": "SouthWest Corner",
  "state": "WA",
  "latitude": 47.042749,
  "longitude": -122.83586,
  "timezone": "PST"
 },
 {
  "storeType": "Store",
  "type": "General Merchandise",
  "tNumber": "T0910",
  "neighborhood": "Tanasbourne",
  "address": "11095 NE Evergreen Pkwy",
  "city": "Hillsboro",
  "country": "United States of America",
  "mailCode": "US",
  "county": "Washington",
  "intersectionDesc": "US 26 & NW 185th Ave",
  "postal": 97006,
  "postalZip": 7510,
  "quadrant": "SEC",
  "quadrantDesc": "SouthEast Corner",
  "state": "OR",
  "latitude": 45.539167,
  "longitude": -122.864806,
  "timezone": "PST"
 },
 {
  "storeType": "Store",
  "type": "General Merchandise",
  "tNumber": "T1419",
  "neighborhood": "Portland East Washington Street",
  "address": "9800 SE Washington St",
  "city": "Portland",
  "country": "United States of America",
  "mailCode": "US",
  "county": "Multnomah",
  "intersectionDesc": "I-205 & Stark",
  "postal": 97216,
  "postalZip": 2420,
  "quadrant": "SEC",
  "quadrantDesc": "SouthEast Corner",
  "state": "OR",
  "latitude": 45.516017,
  "longitude": -122.562351,
  "timezone": "PST"
 },
 {
  "storeType": "Store",
  "type": "General Merchandise",
  "tNumber": "T0344",
  "neighborhood": "Beaverton",
  "address": "10775 SW Beaverton Hillsdale Hwy",
  "city": "Beaverton",
  "country": "United States of America",
  "mailCode": "US",
  "county": "Washington",
  "intersectionDesc": "107th & Beaverton-Hillsdale",
  "postal": 97005,
  "postalZip": 3001,
  "quadrant": "NWC",
  "quadrantDesc": "NorthWest Corner",
  "state": "OR",
  "latitude": 45.487853,
  "longitude": -122.788207,
  "timezone": "PST"
 },
 {
  "storeType": "Store",
  "type": "General Merchandise",
  "tNumber": "T0606",
  "neighborhood": "Silverdale",
  "address": "3201 NW Randall Way",
  "city": "Silverdale",
  "country": "United States of America",
  "mailCode": "US",
  "county": "Kitsap",
  "intersectionDesc": "Clear Creek Rd & Hwy 3",
  "postal": 98383,
  "postalZip": 7952,
  "quadrant": "SWC",
  "quadrantDesc": "SouthWest Corner",
  "state": "WA",
  "latitude": 47.658217,
  "longitude": -122.694049,
  "timezone": "PST"
 },
 {
  "storeType": "Store",
  "type": "General Merchandise",
  "tNumber": "T1957",
  "neighborhood": "Bonney Lake",
  "address": "9400 192nd Ave E",
  "city": "Bonney Lake",
  "country": "United States of America",
  "mailCode": "US",
  "county": "Pierce",
  "intersectionDesc": "SR 410 & 192nd Ave",
  "postal": 98391,
  "postalZip": 8564,
  "quadrant": "NEC",
  "quadrantDesc": "NorthEast Corner",
  "state": "WA",
  "latitude": 47.172074,
  "longitude": -122.171692,
  "timezone": "PST"
 },
 {
  "storeType": "Store",
  "type": "General Merchandise",
  "tNumber": "T1847",
  "neighborhood": "Wilsonville",
  "address": "25925 SW Heather Pl",
  "city": "Wilsonville",
  "country": "United States of America",
  "mailCode": "US",
  "county": "Washington",
  "intersectionDesc": "I-5 & SW Ellingsen Rd",
  "postal": 97070,
  "postalZip": 5785,
  "quadrant": "SEC",
  "quadrantDesc": "SouthEast Corner",
  "state": "OR",
  "latitude": 45.333101,
  "longitude": -122.766997,
  "timezone": "PST"
 },
 {
  "storeType": "Store",
  "type": "General Merchandise",
  "tNumber": "T2136",
  "neighborhood": "Puyallup South",
  "address": "10302 156Th St E",
  "city": "Puyallup",
  "country": "United States of America",
  "mailCode": "US",
  "county": "Pierce",
  "intersectionDesc": "Meridian Ave E & 160th St E",
  "postal": 98374,
  "postalZip": 9321,
  "quadrant": "NEC",
  "quadrantDesc": "NorthEast Corner",
  "state": "WA",
  "latitude": 47.11346,
  "longitude": -122.292,
  "timezone": "PST"
 },
 {
  "storeType": "Store",
  "type": "General Merchandise",
  "tNumber": "T0613",
  "neighborhood": "Medford",
  "address": "2000 Crater Lake Hwy",
  "city": "Medford",
  "country": "United States of America",
  "mailCode": "US",
  "county": "Jackson",
  "intersectionDesc": "Crater Lake Hwy & Bear Creek",
  "postal": 97504,
  "postalZip": 4161,
  "quadrant": "SWC",
  "quadrantDesc": "SouthWest Corner",
  "state": "OR",
  "latitude": 42.347395,
  "longitude": -122.878198,
  "timezone": "PST"
 },
 {
  "storeType": "Store",
  "type": "General Merchandise",
  "tNumber": "T0679",
  "neighborhood": "Coeur d'Alene",
  "address": "315 W Canfield Ave",
  "city": "Coeur d'Alene",
  "country": "United States of America",
  "mailCode": "US",
  "county": "Kootenai",
  "intersectionDesc": "Hwy 95 & Canfield Rd",
  "postal": 83815,
  "postalZip": 7750,
  "quadrant": "NEC",
  "quadrantDesc": "NorthEast Corner",
  "state": "ID",
  "latitude": 47.734676,
  "longitude": -116.791065,
  "timezone": "PST"
 },
 {
  "storeType": "Store",
  "type": "General Merchandise",
  "tNumber": "T0607",
  "neighborhood": "Olympia",
  "address": "2925 Harrison Ave NW",
  "city": "Olympia",
  "country": "United States of America",
  "mailCode": "US",
  "county": "Thurston",
  "intersectionDesc": "Mud Bay Hwy SW & Kenyon",
  "postal": 98502,
  "postalZip": 2566,
  "quadrant": "SWC",
  "quadrantDesc": "SouthWest Corner",
  "state": "WA",
  "latitude": 47.044627,
  "longitude": -122.937368,
  "timezone": "PST"
 },
 {
  "storeType": "Store",
  "type": "General Merchandise",
  "tNumber": "T2290",
  "neighborhood": "Renton",
  "address": "1215 N Landing Way",
  "city": "Renton",
  "country": "United States of America",
  "mailCode": "US",
  "county": "King",
  "location.mail_lot_and_block_t": "West of I-405 at Park Ave",
  "postal": 98057,
  "postalZip": 5521,
  "state": "WA",
  "latitude": 47.496772,
  "longitude": -122.200399,
  "timezone": "PST"
 },
 {
  "storeType": "Store",
  "type": "General Merchandise",
  "tNumber": "T2523",
  "neighborhood": "Portland NE",
  "address": "9401 NE Cascades Pkwy",
  "city": "Portland",
  "country": "United States of America",
  "mailCode": "US",
  "county": "Multnomah",
  "intersectionDesc": "NE Airport Way & NE Mt Hood Ave",
  "postal": 97220,
  "postalZip": 6824,
  "quadrant": "SWC",
  "quadrantDesc": "SouthWest Corner",
  "state": "OR",
  "latitude": 45.57659,
  "longitude": -122.564823,
  "timezone": "PST"
 },
 {
  "storeType": "Store",
  "type": "General Merchandise",
  "tNumber": "T0681",
  "neighborhood": "Kent",
  "address": "26301 104th Ave SE",
  "city": "Kent",
  "country": "United States of America",
  "mailCode": "US",
  "county": "King",
  "intersectionDesc": "104th Ave & SE 260th St",
  "postal": 98030,
  "postalZip": 7649,
  "quadrant": "SWC",
  "quadrantDesc": "SouthWest Corner",
  "state": "WA",
  "latitude": 47.366609,
  "longitude": -122.202974,
  "timezone": "PST"
 },
 {
  "storeType": "Store",
  "type": "General Merchandise",
  "tNumber": "T0627",
  "neighborhood": "South Center",
  "address": "301 Strander Blvd",
  "city": "Tukwila",
  "country": "United States of America",
  "mailCode": "US",
  "county": "King",
  "intersectionDesc": "Strander Blvd & Auburn Pk",
  "postal": 98188,
  "postalZip": 2971,
  "quadrant": "SWC",
  "quadrantDesc": "SouthWest Corner",
  "state": "WA",
  "latitude": 47.4553,
  "longitude": -122.258,
  "timezone": "PST"
 },
 {
  "storeType": "Store",
  "type": "General Merchandise",
  "tNumber": "T0609",
  "neighborhood": "Albany",
  "address": "2255 14th Ave SE",
  "city": "Albany",
  "country": "United States of America",
  "mailCode": "US",
  "county": "Linn",
  "intersectionDesc": "Geary & 14th Ave",
  "postal": 97322,
  "postalZip": 8513,
  "quadrant": "NEC",
  "quadrantDesc": "NorthEast Corner",
  "state": "OR",
  "latitude": 44.630034,
  "longitude": -123.078597,
  "timezone": "PST"
 },
 {
  "storeType": "Store",
  "type": "General Merchandise",
  "tNumber": "T2372",
  "neighborhood": "Anchorage South",
  "address": "150 W 100th Ave",
  "location.address.2": "Ste A",
  "city": "Anchorage",
  "country": "United States of America",
  "mailCode": "US",
  "county": "Anchorage Municipality",
  "intersectionDesc": "W 100th Ave & \"C\" Street",
  "postal": 99515,
  "postalZip": 2673,
  "quadrant": "SEC",
  "quadrantDesc": "SouthEast Corner",
  "state": "AK",
  "latitude": 61.129094,
  "longitude": -149.881696,
  "timezone": "AKST"
 },
 {
  "storeType": "Store",
  "type": "General Merchandise",
  "tNumber": "T0338",
  "neighborhood": "Lynnwood",
  "address": "18305 Alderwood Mall Pkwy",
  "city": "Lynnwood",
  "country": "United States of America",
  "mailCode": "US",
  "county": "Snohomish",
  "intersectionDesc": "Alderwood Mall Blvd & 26th",
  "postal": 98037,
  "postalZip": 3961,
  "quadrant": "NWC",
  "quadrantDesc": "NorthWest Corner",
  "state": "WA",
  "latitude": 47.832446,
  "longitude": -122.266588,
  "timezone": "PST"
 },
 {
  "storeType": "Store",
  "type": "General Merchandise",
  "tNumber": "T1868",
  "neighborhood": "Sherwood",
  "address": "21365 SW Baler Way",
  "city": "Sherwood",
  "country": "United States of America",
  "mailCode": "US",
  "county": "Washington",
  "intersectionDesc": "SW Tualatin Sherwood & Rt 99",
  "postal": 97140,
  "postalZip": 8989,
  "quadrant": "SEC",
  "quadrantDesc": "SouthEast Corner",
  "state": "OR",
  "latitude": 45.366442,
  "longitude": -122.838655,
  "timezone": "PST"
 },
 {
  "storeType": "Store",
  "type": "General Merchandise",
  "tNumber": "T0617",
  "neighborhood": "Boise",
  "address": "633 N Milwaukee St",
  "city": "Boise",
  "country": "United States of America",
  "mailCode": "US",
  "county": "Ada",
  "intersectionDesc": "Emerald St & Milwaukee St",
  "postal": 83704,
  "postalZip": 9139,
  "quadrant": "SWC",
  "quadrantDesc": "SouthWest Corner",
  "state": "ID",
  "latitude": 43.610581,
  "longitude": -116.285758,
  "timezone": "MST"
 },
 {
  "storeType": "Store",
  "type": "General Merchandise",
  "tNumber": "T0885",
  "neighborhood": "Missoula",
  "address": "2420 N Reserve St",
  "city": "Missoula",
  "country": "United States of America",
  "mailCode": "US",
  "county": "Missoula",
  "intersectionDesc": "Reserve St & Mullan St",
  "postal": 59808,
  "postalZip": 1317,
  "quadrant": "NEC",
  "quadrantDesc": "NorthEast Corner",
  "state": "MT",
  "latitude": 46.887645,
  "longitude": -114.037236,
  "timezone": "MST"
 },
 {
  "storeType": "Store",
  "type": "General Merchandise",
  "tNumber": "T0612",
  "neighborhood": "Springfield",
  "address": "2750 Gateway St",
  "city": "Springfield",
  "country": "United States of America",
  "mailCode": "US",
  "county": "Lane",
  "intersectionDesc": "Gateway St & Harlow Rd",
  "postal": 97477,
  "postalZip": 1172,
  "quadrant": "NWC",
  "quadrantDesc": "NorthWest Corner",
  "state": "OR",
  "latitude": 44.071789,
  "longitude": -123.045335,
  "timezone": "PST"
 },
 {
  "storeType": "Store",
  "type": "General Merchandise",
  "tNumber": "T1883",
  "neighborhood": "Vancouver NW",
  "address": "8801 NE Hazel Dell Ave",
  "city": "Vancouver",
  "country": "United States of America",
  "mailCode": "US",
  "county": "Clark",
  "intersectionDesc": "NE Hazel Del Ave & NW 93th St",
  "postal": 98665,
  "postalZip": 8145,
  "quadrant": "SEC",
  "quadrantDesc": "SouthEast Corner",
  "state": "WA",
  "latitude": 45.686388,
  "longitude": -122.667686,
  "timezone": "PST"
 },
 {
  "storeType": "Store",
  "type": "General Merchandise",
  "tNumber": "T1205",
  "neighborhood": "Gig Harbor",
  "address": "11400 51st Ave NW",
  "city": "Gig Harbor",
  "country": "United States of America",
  "mailCode": "US",
  "county": "Pierce",
  "intersectionDesc": "Hwy 16 & Burnham Rd",
  "postal": 98332,
  "postalZip": 7891,
  "quadrant": "NEC",
  "quadrantDesc": "NorthEast Corner",
  "state": "WA",
  "latitude": 47.360864,
  "longitude": -122.607339,
  "timezone": "PST"
 },
 {
  "storeType": "Virtual or Dummy STR",
  "type": "Special Store",
  "tNumber": "T2869",
  "neighborhood": "Target Project Dragon",
  "address": "3105 N. Mango Ave",
  "city": "Rialto",
  "country": "United States of America",
  "mailCode": "US",
  "county": "San Bernadino",
  "postal": 92377,
  "postalZip": 4901,
  "state": "CA",
  "latitude": 34.15283,
  "longitude": -117.42943,
  "timezone": "PST"
 },
 {
  "storeType": "Virtual or Dummy STR",
  "type": "Special Store",
  "tNumber": "T2505",
  "neighborhood": "MP Event Store",
  "address": "1000 Nicollet Mall TPS-272",
  "city": "Minneapolis",
  "country": "United States of America",
  "mailCode": "US",
  "county": "Hennepin",
  "postal": 55403,
  "postalZip": 2542,
  "state": "MN",
  "latitude": 44.97391,
  "longitude": -93.2757,
  "timezone": "CST"
 },
 {
  "storeType": "Virtual or Dummy STR",
  "type": "Fulfillment Center at Store",
  "tNumber": "T3017",
  "neighborhood": "Non-FC .com DVS",
  "address": "1000 Nicollet Mall",
  "city": "Minneapolis",
  "country": "United States of America",
  "mailCode": "US",
  "county": "Hennepin",
  "postal": 55403,
  "postalZip": 2542,
  "state": "MN",
  "latitude": 44.97385,
  "longitude": -93.2758,
  "timezone": "CST"
 },
 {
  "storeType": "Virtual or Dummy STR",
  "type": "Fulfillment Center at Store",
  "tNumber": "T3007",
  "neighborhood": "Target.com Ontario TFC FC STR",
  "address": "1505 S Haven Ave",
  "city": "Ontario",
  "country": "United States of America",
  "mailCode": "US",
  "county": "San Bernardino",
  "postal": 91761,
  "postalZip": 2928,
  "state": "CA",
  "latitude": 34.04602,
  "longitude": -117.572,
  "timezone": "PST"
 },
 {
  "storeType": "Store",
  "type": "General Merchandise",
  "tNumber": "T2569",
  "neighborhood": "Las Vegas N Decatur",
  "address": "6371 N Decatur Blvd",
  "city": "Las Vegas",
  "country": "United States of America",
  "mailCode": "US",
  "county": "Clark",
  "intersectionDesc": "Hwy 215 & N Decatur Blvd",
  "postal": 89130,
  "postalZip": 8001,
  "quadrant": "SWC",
  "quadrantDesc": "SouthWest Corner",
  "state": "NV",
  "latitude": 36.272988,
  "longitude": -115.209482,
  "timezone": "PST"
 },
 {
  "storeType": "Virtual or Dummy STR",
  "type": "Fulfillment Center at Store",
  "tNumber": "T3005",
  "neighborhood": "Target.com Tucson TFC FC STR",
  "address": "8940 East Rita Park Drive",
  "city": "Tucson",
  "country": "United States of America",
  "mailCode": "US",
  "county": "Pima",
  "postal": 85747,
  "postalZip": 9255,
  "state": "AZ",
  "latitude": 32.1009,
  "longitude": -110.699,
  "timezone": "MST"
 },
 {
  "storeType": "Store",
  "type": "General Merchandise",
  "tNumber": "T2497",
  "neighborhood": "N Las Vegas Deer SP",
  "address": "7090 N 5th St",
  "city": "North Las Vegas",
  "country": "United States of America",
  "mailCode": "US",
  "county": "Clark",
  "intersectionDesc": "215 Beltway & N 5th St",
  "postal": 89084,
  "postalZip": 1333,
  "quadrant": "SEC",
  "quadrantDesc": "SouthEast Corner",
  "state": "NV",
  "latitude": 36.288669,
  "longitude": -115.133095,
  "timezone": "PST"
 },
 {
  "storeType": "Store",
  "type": "General Merchandise",
  "tNumber": "T2568",
  "neighborhood": "Henderson Green Valley Ranch Pkwy",
  "address": "695 S Green Valley Pkwy",
  "city": "Henderson",
  "country": "United States of America",
  "mailCode": "US",
  "county": "Clark",
  "intersectionDesc": "W Horizon Ridge Pkwy & S Green Valley Pkwy",
  "postal": 89052,
  "postalZip": 404,
  "quadrant": "SWC",
  "quadrantDesc": "SouthWest Corner",
  "state": "NV",
  "latitude": 36.003399,
  "longitude": -115.085183,
  "timezone": "PST"
 },
 {
  "storeType": "Store",
  "type": "General Merchandise",
  "tNumber": "T0264",
  "neighborhood": "Las Vegas East",
  "address": "1200 S Nellis Blvd",
  "city": "Las Vegas",
  "country": "United States of America",
  "mailCode": "US",
  "county": "Clark",
  "intersectionDesc": "S Nellis & Charleston Blvd",
  "postal": 89104,
  "postalZip": 5752,
  "quadrant": "SEC",
  "quadrantDesc": "SouthEast Corner",
  "state": "NV",
  "latitude": 36.15806,
  "longitude": -115.060962,
  "timezone": "PST"
 },
 {
  "storeType": "Store",
  "type": "General Merchandise",
  "tNumber": "T2404",
  "neighborhood": "Henderson Lake Mead Pkwy",
  "address": "350 W Lake Mead Pkwy",
  "city": "Henderson",
  "country": "United States of America",
  "mailCode": "US",
  "county": "Clark",
  "intersectionDesc": "State Hwy 146 & Water St",
  "postal": 89015,
  "postalZip": 7088,
  "quadrant": "NWC",
  "quadrantDesc": "NorthWest Corner",
  "state": "NV",
  "latitude": 36.038477,
  "longitude": -114.994098,
  "timezone": "PST"
 },
 {
  "storeType": "Store",
  "type": "General Merchandise",
  "tNumber": "T2164",
  "neighborhood": "Las Vegas Blue Diamond",
  "address": "4100 Blue Diamond Rd",
  "city": "Las Vegas",
  "country": "United States of America",
  "mailCode": "US",
  "county": "Clark",
  "intersectionDesc": "Blue Diamond Rd & Hinson",
  "postal": 89139,
  "postalZip": 7717,
  "quadrant": "NWC",
  "quadrantDesc": "NorthWest Corner",
  "state": "NV",
  "latitude": 36.04072,
  "longitude": -115.194644,
  "timezone": "PST"
 },
 {
  "storeType": "Store",
  "type": "General Merchandise",
  "tNumber": "T0826",
  "neighborhood": "Las Vegas NW",
  "address": "3210 N Tenaya Way",
  "city": "Las Vegas",
  "country": "United States of America",
  "mailCode": "US",
  "county": "Clark",
  "intersectionDesc": "Cheyenne & Tenaya Way",
  "postal": 89129,
  "postalZip": 6239,
  "quadrant": "NEC",
  "quadrantDesc": "NorthEast Corner",
  "state": "NV",
  "latitude": 36.21954,
  "longitude": -115.25,
  "timezone": "PST"
 },
 {
  "storeType": "Store",
  "type": "General Merchandise",
  "tNumber": "T1171",
  "neighborhood": "Las Vegas Silverado Ranch",
  "address": "9725 S Eastern Ave",
  "city": "Las Vegas",
  "country": "United States of America",
  "mailCode": "US",
  "county": "Clark",
  "intersectionDesc": "Eastern Ave & Silverado",
  "postal": 89183,
  "postalZip": 6841,
  "quadrant": "SWC",
  "quadrantDesc": "SouthWest Corner",
  "state": "NV",
  "latitude": 36.012118,
  "longitude": -115.121798,
  "timezone": "PST"
 },
 {
  "storeType": "Store",
  "type": "General Merchandise",
  "tNumber": "T0265",
  "neighborhood": "Las Vegas Flamingo",
  "address": "4001 S Maryland Pkwy",
  "city": "Las Vegas",
  "country": "United States of America",
  "mailCode": "US",
  "county": "Clark",
  "intersectionDesc": "Maryland Pkwy & Flamingo",
  "postal": 89119,
  "postalZip": 7556,
  "quadrant": "NWC",
  "quadrantDesc": "NorthWest Corner",
  "state": "NV",
  "latitude": 36.116541,
  "longitude": -115.13886,
  "timezone": "PST"
 },
 {
  "storeType": "Store",
  "type": "General Merchandise",
  "tNumber": "T1462",
  "neighborhood": "Las Vegas Centennial Hills",
  "address": "6480 Sky Pointe Dr",
  "city": "Las Vegas",
  "country": "United States of America",
  "mailCode": "US",
  "county": "Clark",
  "intersectionDesc": "US 95 & Centennial Pkwy",
  "postal": 89131,
  "postalZip": 4038,
  "quadrant": "NEC",
  "quadrantDesc": "NorthEast Corner",
  "state": "NV",
  "latitude": 36.280438,
  "longitude": -115.263741,
  "timezone": "PST"
 },
 {
  "storeType": "Store",
  "type": "General Merchandise",
  "tNumber": "T0680",
  "neighborhood": "Henderson Stephanie Street",
  "address": "605 N Stephanie St",
  "city": "Henderson",
  "country": "United States of America",
  "mailCode": "US",
  "county": "Clark",
  "intersectionDesc": "Stephanie & Sunset",
  "postal": 89014,
  "postalZip": 2612,
  "quadrant": "NWC",
  "quadrantDesc": "NorthWest Corner",
  "state": "NV",
  "latitude": 36.065059,
  "longitude": -115.047712,
  "timezone": "PST"
 },
 {
  "storeType": "Virtual or Dummy STR",
  "type": "Special Store",
  "tNumber": "T2769",
  "neighborhood": "Target Pharmacy-HQ Employees Only",
  "address": "1000 Nicollet Mall TPS-272",
  "city": "Minneapolis",
  "country": "United States of America",
  "mailCode": "US",
  "county": "Hennepin",
  "postal": 55403,
  "postalZip": 2542,
  "state": "MN",
  "latitude": 44.97391,
  "longitude": -93.2757,
  "timezone": "CST"
 },
 {
  "storeType": "Virtual or Dummy STR",
  "type": "Special Store",
  "tNumber": "T2513",
  "neighborhood": "Event Store",
  "address": "1000 Nicollet Mall TPS-272",
  "city": "Minneapolis",
  "country": "United States of America",
  "mailCode": "US",
  "county": "Hennepin",
  "postal": 55403,
  "postalZip": 2542,
  "state": "MN",
  "latitude": 44.97391,
  "longitude": -93.2757,
  "timezone": "CST"
 },
 {
  "storeType": "Virtual or Dummy STR",
  "type": "Online Only",
  "tNumber": "T3996",
  "neighborhood": "Target.com Online Music",
  "address": "9501 Hudson Rd",
  "city": "Woodbury",
  "country": "United States of America",
  "mailCode": "US",
  "county": "Washington",
  "postal": 55125,
  "postalZip": 9412,
  "state": "MN",
  "latitude": 44.94686,
  "longitude": -92.9139,
  "timezone": "CST"
 },
 {
  "storeType": "Virtual or Dummy STR",
  "type": "Online Only",
  "tNumber": "T3992",
  "neighborhood": "Giftcatalogue.com",
  "address": "9501 Hudson Rd",
  "city": "Woodbury",
  "country": "United States of America",
  "mailCode": "US",
  "county": "Washington",
  "postal": 55125,
  "postalZip": 9412,
  "state": "MN",
  "latitude": 44.94686,
  "longitude": -92.9139,
  "timezone": "CST"
 },
 {
  "storeType": "Virtual or Dummy STR",
  "type": "Online Only",
  "tNumber": "T3995",
  "neighborhood": "Target Years of Service",
  "address": "9501 Hudson Rd",
  "city": "Woodbury",
  "country": "United States of America",
  "mailCode": "US",
  "county": "Washington",
  "postal": 55125,
  "postalZip": 9412,
  "state": "MN",
  "latitude": 44.94686,
  "longitude": -92.9139,
  "timezone": "CST"
 },
 {
  "storeType": "Virtual or Dummy STR",
  "type": "Online Only",
  "tNumber": "T3994",
  "neighborhood": "Target Site",
  "address": "9501 Hudson Rd",
  "city": "Woodbury",
  "country": "United States of America",
  "mailCode": "US",
  "county": "Washington",
  "postal": 55125,
  "postalZip": 9412,
  "state": "MN",
  "latitude": 44.94686,
  "longitude": -92.9139,
  "timezone": "CST"
 },
 {
  "storeType": "Virtual or Dummy STR",
  "type": "Online Only",
  "tNumber": "T3991",
  "neighborhood": "Target E-Commerce",
  "address": "9501 Hudson Rd",
  "city": "Woodbury",
  "country": "United States of America",
  "mailCode": "US",
  "county": "Washington",
  "postal": 55125,
  "postalZip": 9412,
  "state": "MN",
  "latitude": 44.94686,
  "longitude": -92.9139,
  "timezone": "CST"
 },
 {
  "storeType": "Virtual or Dummy STR",
  "type": "Online Only",
  "tNumber": "T3998",
  "neighborhood": "Blackhawk Network",
  "address": "6220 Stoneridge Mall Road",
  "city": "Pleasanton",
  "country": "United States of America",
  "mailCode": "US",
  "county": "Alameda",
  "postal": 94588,
  "postalZip": 3260,
  "state": "CA",
  "latitude": 37.69448,
  "longitude": -121.92459,
  "timezone": "PST"
 },
 {
  "storeType": "Virtual or Dummy STR",
  "type": "Online Only",
  "tNumber": "T3993",
  "neighborhood": "Amazon.com",
  "address": "9501 Hudson Rd",
  "city": "Woodbury",
  "country": "United States of America",
  "mailCode": "US",
  "county": "Washington",
  "postal": 55125,
  "postalZip": 9412,
  "state": "MN",
  "latitude": 44.94686,
  "longitude": -92.9139,
  "timezone": "CST"
 },
 {
  "storeType": "Virtual or Dummy STR",
  "type": "Online Only",
  "tNumber": "T3997",
  "neighborhood": "Amazon\/Gift Registry",
  "address": "9501 Hudson Rd",
  "city": "Woodbury",
  "country": "United States of America",
  "mailCode": "US",
  "county": "Washington",
  "postal": 55125,
  "postalZip": 9412,
  "state": "MN",
  "latitude": 44.94686,
  "longitude": -92.9139,
  "timezone": "CST"
 },
 {
  "storeType": "Virtual or Dummy STR",
  "type": "Online Only",
  "tNumber": "T3002",
  "neighborhood": "Digital Entertainment Project",
  "address": "2860 De La Cruz",
  "city": "Santa Clara",
  "country": "United States of America",
  "mailCode": "US",
  "county": "Santa Clara",
  "postal": 95050,
  "postalZip": 2635,
  "state": "CA",
  "latitude": 37.37159,
  "longitude": -121.94494,
  "timezone": "PST"
 },
 {
  "storeType": "Virtual or Dummy STR",
  "type": "Fulfillment Center at Store",
  "tNumber": "T3064",
  "neighborhood": "Target.com T3865 SfStr",
  "address": "3501 S Pulaski Rd",
  "city": "Chicago",
  "country": "United States of America",
  "mailCode": "US",
  "county": "Cook",
  "postal": 60623,
  "state": "IL",
  "latitude": 41.82879,
  "longitude": -87.7241,
  "timezone": "CST"
 },
 {
  "storeType": "Store",
  "type": "Small Format",
  "tNumber": "T3280",
  "neighborhood": "Jackson Heights",
  "address": "40-25 82nd St",
  "city": "Elmhurst",
  "country": "United States of America",
  "mailCode": "US",
  "county": "Queens",
  "intersectionDesc": "Ithaca Ave and 82nd St",
  "postal": 11373,
  "postalZip": 1304,
  "quadrant": "NEC",
  "quadrantDesc": "NorthEast Corner",
  "state": "NY",
  "latitude": 40.746818,
  "longitude": -73.883431,
  "timezone": "EST"
 },
 {
  "storeType": "Store",
  "type": "Small Format",
  "tNumber": "T3382",
  "neighborhood": "Lawrence Five Towns",
  "address": "345 Rockaway Tpke",
  "city": "Lawrence",
  "country": "United States of America",
  "mailCode": "US",
  "county": "Nassau",
  "intersectionDesc": "Burnside Ave & Nassau Expy",
  "postal": 11559,
  "postalZip": 1048,
  "quadrant": "NEC",
  "quadrantDesc": "NorthEast Corner",
  "state": "NY",
  "latitude": 40.626563,
  "longitude": -73.738597,
  "timezone": "EST"
 },
 {
  "storeType": "Store",
  "type": "Small Format",
  "tNumber": "T3324",
  "neighborhood": "Hyannis Cape Cod",
  "address": "793 Iyannough Rd",
  "city": "Hyannis",
  "country": "United States of America",
  "mailCode": "US",
  "county": "Barnstable",
  "intersectionDesc": "ROUTE 132 & ENTERPRISE RD",
  "postal": 2601,
  "postalZip": 5027,
  "quadrant": "SEC",
  "quadrantDesc": "SouthEast Corner",
  "state": "MA",
  "latitude": 41.666927,
  "longitude": -70.294616,
  "timezone": "EST"
 },
 {
  "storeType": "Store",
  "type": "Small Format",
  "tNumber": "T3368",
  "neighborhood": "Boston Beacon Hill",
  "address": "100 Cambridge St, Ste 2",
  "city": "Boston",
  "country": "United States of America",
  "mailCode": "US",
  "county": "Suffolk",
  "intersectionDesc": "Cambridge St & Bowdoin",
  "postal": 2114,
  "postalZip": 2532,
  "quadrant": "SEC",
  "quadrantDesc": "SouthEast Corner",
  "state": "MA",
  "latitude": 42.361045,
  "longitude": -71.0626,
  "timezone": "EST"
 },
 {
  "storeType": "Store",
  "type": "Small Format",
  "tNumber": "T3243",
  "neighborhood": "Brooklyn Midwood",
  "address": "1715 E. 13th St",
  "city": "Brooklyn",
  "country": "United States of America",
  "mailCode": "US",
  "county": "Kings",
  "intersectionDesc": "Kings Hwy & 14th St",
  "postal": 11229,
  "postalZip": 2086,
  "quadrant": "SWC",
  "quadrantDesc": "SouthWest Corner",
  "state": "NY",
  "latitude": 40.608593,
  "longitude": -73.958472,
  "timezone": "EST"
 },
 {
  "storeType": "Store",
  "type": "Small Format",
  "tNumber": "T3326",
  "neighborhood": "Brooklyn Kings Hwy",
  "address": "5200 Kings Hwy, Ste A",
  "city": "Brooklyn",
  "country": "United States of America",
  "mailCode": "US",
  "county": "Kings",
  "intersectionDesc": "Kings Hwy and Foster Ave",
  "postal": 11234,
  "postalZip": 1130,
  "state": "NY",
  "latitude": 40.636286,
  "longitude": -73.927667,
  "timezone": "EST"
 },
 {
  "storeType": "Store",
  "type": "Small Format",
  "tNumber": "T3284",
  "neighborhood": "Lower East Side Grand and Clinton",
  "address": "400 Grand St",
  "city": "New York",
  "country": "United States of America",
  "mailCode": "US",
  "county": "New York",
  "intersectionDesc": "BROOME AND CLINTON ST",
  "postal": 10002,
  "postalZip": 3949,
  "quadrant": "NEC",
  "quadrantDesc": "NorthEast Corner",
  "state": "NY",
  "latitude": 40.716204,
  "longitude": -73.986877,
  "timezone": "EST"
 },
 {
  "storeType": "Store",
  "type": "Small Format",
  "tNumber": "T3399",
  "neighborhood": "Port Chester",
  "address": "495 Boston Post Rd",
  "city": "Port Chester",
  "country": "United States of America",
  "mailCode": "US",
  "county": "Westchester",
  "intersectionDesc": "Boston Port Rd & High St",
  "postal": 10573,
  "postalZip": 4738,
  "quadrant": "SEC",
  "quadrantDesc": "SouthEast Corner",
  "state": "NY",
  "latitude": 40.991604,
  "longitude": -73.673314,
  "timezone": "EST"
 },
 {
  "storeType": "Store",
  "type": "Small Format",
  "tNumber": "T3306",
  "neighborhood": "South Burlington",
  "address": "155 Dorset St",
  "city": "South Burlington",
  "country": "United States of America",
  "mailCode": "US",
  "county": "Chittenden",
  "intersectionDesc": "Dorset St & Market St",
  "postal": 5403,
  "postalZip": 6346,
  "quadrant": "NWC",
  "quadrantDesc": "NorthWest Corner",
  "state": "VT",
  "latitude": 44.466154,
  "longitude": -73.18226,
  "timezone": "EST"
 },
 {
  "storeType": "Store",
  "type": "Small Format",
  "tNumber": "T3312",
  "neighborhood": "Upper East Side 70th and 3rd",
  "address": "1201 3rd Ave",
  "city": "New York",
  "country": "United States of America",
  "mailCode": "US",
  "county": "New York",
  "intersectionDesc": "3rd Ave and 70th St",
  "postal": 10021,
  "postalZip": 5401,
  "quadrant": "SEC",
  "quadrantDesc": "SouthEast Corner",
  "state": "NY",
  "latitude": 40.768169,
  "longitude": -73.961505,
  "timezone": "EST"
 },
 {
  "storeType": "Store",
  "type": "Small Format",
  "tNumber": "T3372",
  "neighborhood": "Queens Jamaica Avenue",
  "address": "160-08 Jamaica Ave",
  "city": "Jamaica",
  "country": "United States of America",
  "mailCode": "US",
  "county": "Queens",
  "intersectionDesc": "160th and Jamaica Ave",
  "postal": 11432,
  "postalZip": 6110,
  "quadrant": "SEC",
  "quadrantDesc": "SouthEast Corner",
  "state": "NY",
  "latitude": 40.703792,
  "longitude": -73.798585,
  "timezone": "EST"
 },
 {
  "storeType": "Store",
  "type": "Small Format",
  "tNumber": "T3287",
  "neighborhood": "Medford MA",
  "address": "471 Salem St",
  "city": "Medford",
  "country": "United States of America",
  "mailCode": "US",
  "county": "Middlesex",
  "intersectionDesc": "Fellsway Rt. 28 and Salem Rt. 60",
  "postal": 2155,
  "postalZip": 3336,
  "quadrant": "SEC",
  "quadrantDesc": "SouthEast Corner",
  "state": "MA",
  "latitude": 42.42072,
  "longitude": -71.09902,
  "timezone": "EST"
 },
 {
  "storeType": "Store",
  "type": "Small Format",
  "tNumber": "T3253",
  "neighborhood": "Stoneham Redstone",
  "address": "113 Main St",
  "city": "Stoneham",
  "country": "United States of America",
  "mailCode": "US",
  "county": "Middlesex",
  "intersectionDesc": "Route 28 & Nixon LN",
  "postal": 2180,
  "postalZip": 3305,
  "quadrant": "NWC",
  "quadrantDesc": "NorthWest Corner",
  "state": "MA",
  "latitude": 42.494932,
  "longitude": -71.103401,
  "timezone": "EST"
 },
 {
  "storeType": "Store",
  "type": "Small Format",
  "tNumber": "T3318",
  "neighborhood": "Selden",
  "address": "307 Independence Plz",
  "city": "Selden",
  "country": "United States of America",
  "mailCode": "US",
  "county": "Suffolk",
  "intersectionDesc": "MIddle Country & 183",
  "postal": 11784,
  "postalZip": 2400,
  "quadrant": "NWC",
  "quadrantDesc": "NorthWest Corner",
  "state": "NY",
  "latitude": 40.866037,
  "longitude": -73.050659,
  "timezone": "EST"
 },
 {
  "storeType": "Store",
  "type": "Small Format",
  "tNumber": "T3387",
  "neighborhood": "Upper East Side 86th and Lex",
  "address": "150 E 86th St",
  "city": "New York",
  "country": "United States of America",
  "mailCode": "US",
  "county": "New York",
  "intersectionDesc": "86th & Lexington",
  "postal": 10028,
  "postalZip": 2118,
  "quadrant": "SEC",
  "quadrantDesc": "SouthEast Corner",
  "state": "NY",
  "latitude": 40.779116,
  "longitude": -73.955141,
  "timezone": "EST"
 },
 {
  "storeType": "Store",
  "type": "Small Format",
  "tNumber": "T3329",
  "neighborhood": "Manhattan Washington Heights",
  "address": "602 W 181st St",
  "city": "New York",
  "country": "United States of America",
  "mailCode": "US",
  "county": "New York",
  "intersectionDesc": "181st St & St Nicolas Ave",
  "postal": 10033,
  "postalZip": 4912,
  "state": "NY",
  "latitude": 40.849318,
  "longitude": -73.934066,
  "timezone": "EST"
 },
 {
  "storeType": "Store",
  "type": "Small Format",
  "tNumber": "T3259",
  "neighborhood": "Port Washington North",
  "address": "101 Shore Rd",
  "city": "Port Washington",
  "country": "United States of America",
  "mailCode": "US",
  "county": "Nassau",
  "intersectionDesc": "Shore and Soundviews Rd",
  "postal": 11050,
  "postalZip": 2259,
  "quadrant": "NEC",
  "quadrantDesc": "NorthEast Corner",
  "state": "NY",
  "latitude": 40.841203,
  "longitude": -73.704459,
  "timezone": "EST"
 },
 {
  "storeType": "Store",
  "type": "Small Format",
  "tNumber": "T3291",
  "neighborhood": "Staten Island Forest Ave",
  "address": "1520 Forest Ave",
  "city": "Staten Island",
  "country": "United States of America",
  "mailCode": "US",
  "county": "Richmond",
  "intersectionDesc": "Forest & Crystal Aves",
  "postal": 10302,
  "postalZip": 2225,
  "quadrant": "SEC",
  "quadrantDesc": "SouthEast Corner",
  "state": "NY",
  "latitude": 40.62374,
  "longitude": -74.139574,
  "timezone": "EST"
 },
 {
  "storeType": "Store",
  "type": "Small Format",
  "tNumber": "T3236",
  "neighborhood": "Freeport",
  "address": "248 Sunrise Hwy",
  "city": "Freeport",
  "country": "United States of America",
  "mailCode": "US",
  "county": "Nassau",
  "intersectionDesc": "SWC Sunrise Hwy & Buffalo St",
  "postal": 11520,
  "postalZip": 3943,
  "quadrant": "SWC",
  "quadrantDesc": "SouthWest Corner",
  "state": "NY",
  "latitude": 40.6558,
  "longitude": -73.5716,
  "timezone": "EST"
 },
 {
  "storeType": "Store",
  "type": "Small Format",
  "tNumber": "T3226",
  "neighborhood": "Boston Packards Corner",
  "address": "860 COMMONWEALTH AVE",
  "city": "Boston",
  "country": "United States of America",
  "mailCode": "US",
  "county": "Norfolk",
  "intersectionDesc": "of Commonwealth Ave and Amory",
  "location.mail_lot_and_block_t": "SWC of Commonwealth Ave and Amory",
  "postal": 2215,
  "postalZip": 1205,
  "quadrant": "SWC",
  "quadrantDesc": "SouthWest Corner",
  "state": "MA",
  "latitude": 42.350679,
  "longitude": -71.114022,
  "timezone": "EST"
 },
 {
  "storeType": "Store",
  "type": "Small Format",
  "tNumber": "T3237",
  "neighborhood": "Elmont",
  "address": "1730 Hempstead TPK",
  "city": "Elmont",
  "country": "United States of America",
  "mailCode": "US",
  "county": "Nassau",
  "intersectionDesc": "NEC Hempstead Tpke & Marguerite Ave",
  "postal": 11003,
  "postalZip": 1856,
  "quadrant": "NEC",
  "quadrantDesc": "NorthEast Corner",
  "state": "NY",
  "latitude": 40.7087,
  "longitude": -73.7038,
  "timezone": "EST"
 },
 {
  "storeType": "Store",
  "type": "Small Format",
  "tNumber": "T3229",
  "neighborhood": "Tribeca",
  "address": "255 Greenwich St",
  "city": "New York",
  "country": "United States of America",
  "mailCode": "US",
  "county": "New York",
  "intersectionDesc": "Greenwich & Murray",
  "postal": 10007,
  "postalZip": 2377,
  "state": "NY",
  "latitude": 40.7147,
  "longitude": -74.0112,
  "timezone": "EST"
 },
 {
  "storeType": "Store",
  "type": "Small Format",
  "tNumber": "T3277",
  "neighborhood": "Manhattan Herald Square",
  "address": "112 W 34th St",
  "city": "New York",
  "country": "United States of America",
  "mailCode": "US",
  "county": "New York",
  "intersectionDesc": "34th St and 6th Ave",
  "postal": 10120,
  "postalZip": 101,
  "quadrant": "SWC",
  "quadrantDesc": "SouthWest Corner",
  "state": "NY",
  "latitude": 40.750245,
  "longitude": -73.989309,
  "timezone": "EST"
 },
 {
  "storeType": "Store",
  "type": "Small Format",
  "tNumber": "T3268",
  "neighborhood": "Manhattan Hells Kitchen",
  "address": "615 10th Ave",
  "city": "New York",
  "country": "United States of America",
  "mailCode": "US",
  "county": "New York",
  "intersectionDesc": "W 44th St and 10th Ave",
  "postal": 10036,
  "postalZip": 3035,
  "quadrant": "NWC",
  "quadrantDesc": "NorthWest Corner",
  "state": "NY",
  "latitude": 40.761342,
  "longitude": -73.99456,
  "timezone": "EST"
 },
 {
  "storeType": "Store",
  "type": "Small Format",
  "tNumber": "T3334",
  "neighborhood": "Upper West Side 61st and Broadway",
  "address": "1863 Broadway",
  "city": "New York",
  "country": "United States of America",
  "mailCode": "US",
  "county": "New York",
  "intersectionDesc": "61st St and Broadway",
  "postal": 10023,
  "postalZip": 7503,
  "quadrant": "NWC",
  "quadrantDesc": "NorthWest Corner",
  "state": "NY",
  "latitude": 40.770074,
  "longitude": -73.98245,
  "timezone": "EST"
 },
 {
  "storeType": "Store",
  "type": "Small Format",
  "tNumber": "T3411",
  "neighborhood": "Manhattan Soho",
  "address": "600 Broadway",
  "city": "New York City",
  "country": "United States of America",
  "mailCode": "US",
  "county": "New York",
  "intersectionDesc": "Broadway and Houston",
  "postal": 10012,
  "postalZip": 3206,
  "quadrant": "SEC",
  "quadrantDesc": "SouthEast Corner",
  "state": "NY",
  "latitude": 40.725155,
  "longitude": -73.996741,
  "timezone": "EST"
 },
 {
  "storeType": "Store",
  "type": "Small Format",
  "tNumber": "T3249",
  "neighborhood": "Manhattan East Village",
  "address": "500 E 14th St",
  "city": "New York",
  "country": "United States of America",
  "mailCode": "US",
  "county": "New York",
  "intersectionDesc": "E 14th St & Avenue A",
  "postal": 10009,
  "postalZip": 3336,
  "quadrant": "SEC",
  "quadrantDesc": "SouthEast Corner",
  "state": "NY",
  "latitude": 40.730125,
  "longitude": -73.98019,
  "timezone": "EST"
 },
 {
  "storeType": "Store",
  "type": "Small Format",
  "tNumber": "T3276",
  "neighborhood": "Brooklyn Bensonhurst",
  "address": "6401 18th Ave",
  "city": "Brooklyn",
  "country": "United States of America",
  "mailCode": "US",
  "county": "Kings",
  "intersectionDesc": "64th St and 18th Ave",
  "postal": 11204,
  "postalZip": 3730,
  "quadrant": "SEC",
  "quadrantDesc": "SouthEast Corner",
  "state": "NY",
  "latitude": 40.61957,
  "longitude": -73.989712,
  "timezone": "EST"
 },
 {
  "storeType": "Store",
  "type": "Small Format",
  "tNumber": "T3222",
  "neighborhood": "Cambridge Central Square",
  "address": "564 Massachusetts Ave",
  "city": "Cambridge",
  "country": "United States of America",
  "mailCode": "US",
  "county": "Middlesex",
  "intersectionDesc": "Massachusetts Ave and Pearl",
  "postal": 2139,
  "postalZip": 4029,
  "state": "MA",
  "latitude": 42.364561,
  "longitude": -71.102575,
  "timezone": "EST"
 },
 {
  "storeType": "Store",
  "type": "Small Format",
  "tNumber": "T3363",
  "neighborhood": "Boston Dorchester Fields Corner",
  "address": "500 Geneva Ave",
  "city": "Dorchester",
  "country": "United States of America",
  "mailCode": "US",
  "county": "Suffolk",
  "postal": 2122,
  "postalZip": 1321,
  "state": "MA",
  "latitude": 42.299241,
  "longitude": -71.062748,
  "timezone": "EST"
 },
 {
  "storeType": "Store",
  "type": "Small Format",
  "tNumber": "T3385",
  "neighborhood": "Times Square 42nd Street",
  "address": "237 W 42nd St",
  "city": "New York",
  "country": "United States of America",
  "mailCode": "US",
  "county": "New York",
  "intersectionDesc": "42nd St between 7th and 8th Ave",
  "postal": 10036,
  "postalZip": 7201,
  "state": "NY",
  "latitude": 40.7568,
  "longitude": -73.988212,
  "timezone": "EST"
 },
 {
  "storeType": "Store",
  "type": "Small Format",
  "tNumber": "T3230",
  "neighborhood": "Forest Hills",
  "address": "7000 AUSTIN ST",
  "city": "FOREST HILLS",
  "country": "United States of America",
  "mailCode": "US",
  "county": "Queens",
  "location.mail_lot_and_block_t": "S OF INTERSECTION OF AUSTIN",
  "postal": 11375,
  "postalZip": 1022,
  "state": "NY",
  "latitude": 40.720897,
  "longitude": -73.847121,
  "timezone": "EST"
 },
 {
  "storeType": "Store",
  "type": "Small Format",
  "tNumber": "T3394",
  "neighborhood": "Upper West Side 98th and Columbus",
  "address": "795 Columbus Ave",
  "city": "New York City",
  "country": "United States of America",
  "mailCode": "US",
  "county": "New York",
  "location.mail_lot_and_block_t": "Columbus Ave and 97th St",
  "postal": 10025,
  "postalZip": 5920,
  "state": "NY",
  "latitude": 40.794128,
  "longitude": -73.96633,
  "timezone": "EST"
 },
 {
  "storeType": "Store",
  "type": "Small Format",
  "tNumber": "T3321",
  "neighborhood": "Kips Bay",
  "address": "512 2nd Ave",
  "city": "New York",
  "country": "United States of America",
  "mailCode": "US",
  "county": "New York",
  "intersectionDesc": "29th St & 2nd Ave",
  "postal": 10016,
  "postalZip": 8604,
  "state": "NY",
  "latitude": 40.741484,
  "longitude": -73.978092,
  "timezone": "EST"
 },
 {
  "storeType": "Store",
  "type": "Small Format",
  "tNumber": "T3395",
  "neighborhood": "Bronx Fordham Road",
  "address": "215 E Fordham Rd",
  "city": "Bronx",
  "country": "United States of America",
  "mailCode": "US",
  "county": "Bronx",
  "location.mail_lot_and_block_t": "Fordham Rd and Valentine",
  "postal": 10458,
  "postalZip": 5060,
  "state": "NY",
  "latitude": 40.862576,
  "longitude": -73.896274,
  "timezone": "EST"
 },
 {
  "storeType": "Store",
  "type": "Small Format",
  "tNumber": "T3325",
  "neighborhood": "North Quincy T Station",
  "address": "289 Hancock St",
  "city": "Quincy",
  "country": "United States of America",
  "mailCode": "US",
  "county": "Norfolk",
  "intersectionDesc": "ROUTE 3A & SQUANTUM ST",
  "postal": 2171,
  "quadrant": "NWC",
  "quadrantDesc": "NorthWest Corner",
  "state": "MA",
  "latitude": 42.275401,
  "longitude": -71.029299,
  "timezone": "EST"
 },
 {
  "storeType": "Store",
  "type": "Small Format",
  "tNumber": "T3356",
  "neighborhood": "Brooklyn Bay Parkway",
  "address": "8973-95 Bay Pkwy",
  "city": "Brooklyn",
  "country": "United States of America",
  "mailCode": "US",
  "county": "Kings",
  "intersectionDesc": "Bay Pkwy & Belt Pkwy",
  "postal": 11214,
  "postalZip": 6414,
  "quadrant": "SEC",
  "quadrantDesc": "SouthEast Corner",
  "state": "NY",
  "latitude": 40.593615,
  "longitude": -74.001191,
  "timezone": "EST"
 },
 {
  "storeType": "Store",
  "type": "Small Format",
  "tNumber": "T3223",
  "neighborhood": "Boston Roslindale",
  "address": "4165 Washington St",
  "city": "Roslindale",
  "country": "United States of America",
  "mailCode": "US",
  "county": "Suffolk",
  "location.mail_lot_and_block_t": "Washington and Murray Hill",
  "postal": 2131,
  "postalZip": 1733,
  "state": "MA",
  "latitude": 42.2882972,
  "longitude": -71.1267483,
  "timezone": "EST"
 },
 {
  "storeType": "Store",
  "type": "Small Format",
  "tNumber": "T3304",
  "neighborhood": "Cambridge Porter Square",
  "address": "822 Somerville Ave",
  "city": "Cambridge",
  "country": "United States of America",
  "mailCode": "US",
  "county": "Middlesex",
  "intersectionDesc": "Sommerville Ave & Massachusetts Ave",
  "postal": 2140,
  "quadrant": "NEC",
  "quadrantDesc": "NorthEast Corner",
  "state": "MA",
  "latitude": 42.388648,
  "longitude": -71.118659,
  "timezone": "EST"
 },
 {
  "storeType": "Store",
  "type": "Small Format",
  "tNumber": "T3404",
  "neighborhood": "Brooklyn Flatbush and Church",
  "address": "2101 Church Ave",
  "city": "Brooklyn",
  "country": "United States of America",
  "mailCode": "US",
  "county": "Kings",
  "intersectionDesc": "Flatbush and Church",
  "postal": 11226,
  "postalZip": 4363,
  "state": "NY",
  "latitude": 40.650472,
  "longitude": -73.959584,
  "timezone": "EST"
 },
 {
  "storeType": "Store",
  "type": "Small Format",
  "tNumber": "T3333",
  "neighborhood": "Bishops Corner",
  "address": "333 N Main St, STE 10",
  "city": "West Hartford",
  "country": "United States of America",
  "mailCode": "US",
  "county": "Hartford",
  "intersectionDesc": "N Main St & Hwy 44",
  "postal": 6117,
  "postalZip": 2506,
  "quadrant": "NEC",
  "quadrantDesc": "NorthEast Corner",
  "state": "CT",
  "latitude": 41.783976,
  "longitude": -72.748229,
  "timezone": "EST"
 },
 {
  "storeType": "Store",
  "type": "Small Format",
  "tNumber": "T3401",
  "neighborhood": "West Lebanon Main St",
  "address": "200 S Main St, Unit 24",
  "city": "West Lebanon",
  "country": "United States of America",
  "mailCode": "US",
  "county": "Grafton",
  "intersectionDesc": "I-89 and Route 12A",
  "postal": 3784,
  "postalZip": 2014,
  "state": "NH",
  "latitude": 43.633682,
  "longitude": -72.322002,
  "timezone": "EST"
 },
 {
  "storeType": "Store",
  "type": "Small Format",
  "tNumber": "T3305",
  "neighborhood": "Burlington MA",
  "address": "34 Cambridge St. STE 145",
  "city": "Burlington",
  "country": "United States of America",
  "mailCode": "US",
  "county": "Middlesex",
  "intersectionDesc": "Cambridge St RTE 3 & Wayside Dr",
  "postal": 1803,
  "postalZip": 4611,
  "quadrant": "SEC",
  "quadrantDesc": "SouthEast Corner",
  "state": "MA",
  "latitude": 42.484104,
  "longitude": -71.186185,
  "timezone": "EST"
 },
 {
  "storeType": "Virtual or Dummy STR",
  "type": "Special Store",
  "tNumber": "T2506",
  "neighborhood": "MP Event Store",
  "address": "1000 Nicollet Mall TPS-272",
  "city": "Minneapolis",
  "country": "United States of America",
  "mailCode": "US",
  "county": "Hennepin",
  "postal": 55403,
  "postalZip": 2542,
  "state": "MN",
  "latitude": 44.97391,
  "longitude": -93.2757,
  "timezone": "CST"
 },
 {
  "storeType": "Virtual or Dummy STR",
  "type": "Special Store",
  "tNumber": "T2504",
  "neighborhood": "MP Event Store",
  "address": "1000 Nicollet Mall TPS-272",
  "city": "Minneapolis",
  "country": "United States of America",
  "mailCode": "US",
  "county": "Hennepin",
  "postal": 55403,
  "postalZip": 2542,
  "state": "MN",
  "latitude": 44.97391,
  "longitude": -93.2757,
  "timezone": "CST"
 },
 {
  "storeType": "Store",
  "type": "General Merchandise",
  "tNumber": "T1887",
  "neighborhood": "Mt Vernon",
  "address": "500 East Sandford Blvd",
  "city": "Mount Vernon",
  "country": "United States of America",
  "mailCode": "US",
  "county": "Westchester",
  "intersectionDesc": "Garden Ave & Sandford Blvd",
  "postal": 10550,
  "postalZip": 4784,
  "quadrant": "SWC",
  "quadrantDesc": "SouthWest Corner",
  "state": "NY",
  "latitude": 40.90097,
  "longitude": -73.8178,
  "timezone": "EST"
 },
 {
  "storeType": "Store",
  "type": "General Merchandise",
  "tNumber": "T1508",
  "neighborhood": "Lansing",
  "address": "40 Catherwood Rd",
  "city": "Ithaca",
  "country": "United States of America",
  "mailCode": "US",
  "county": "Tompkins",
  "intersectionDesc": "SR 13 & Triphammer Rd",
  "postal": 14850,
  "postalZip": 1056,
  "quadrant": "NWC",
  "quadrantDesc": "NorthWest Corner",
  "state": "NY",
  "latitude": 42.484933,
  "longitude": -76.490598,
  "timezone": "EST"
 },
 {
  "storeType": "Store",
  "type": "General Merchandise",
  "tNumber": "T2212",
  "neighborhood": "Brooklyn Junction",
  "address": "1598 Flatbush Ave",
  "city": "Brooklyn",
  "country": "United States of America",
  "mailCode": "US",
  "county": "Kings",
  "intersectionDesc": "Flatbush Ave & Avenue H",
  "postal": 11210,
  "postalZip": 3036,
  "quadrant": "SWC",
  "quadrantDesc": "SouthWest Corner",
  "state": "NY",
  "latitude": 40.631538,
  "longitude": -73.946639,
  "timezone": "EST"
 },
 {
  "storeType": "Store",
  "type": "General Merchandise",
  "tNumber": "T1108",
  "neighborhood": "Commack",
  "address": "98 Veterans Memorial Hwy",
  "city": "Commack",
  "country": "United States of America",
  "mailCode": "US",
  "county": "Suffolk",
  "intersectionDesc": "Sunken Meadow & Veterans",
  "postal": 11725,
  "postalZip": 3432,
  "quadrant": "SWC",
  "quadrantDesc": "SouthWest Corner",
  "state": "NY",
  "latitude": 40.839133,
  "longitude": -73.286362,
  "timezone": "EST"
 },
 {
  "storeType": "Store",
  "type": "General Merchandise",
  "tNumber": "T2451",
  "neighborhood": "Flushing",
  "address": "4024 College Point Blvd",
  "location.address.2": "Ste F600",
  "city": "Flushing",
  "country": "United States of America",
  "mailCode": "US",
  "county": "Queens",
  "intersectionDesc": "Roosevelt Ave & College Point Blvd",
  "postal": 11354,
  "postalZip": 5112,
  "quadrant": "SWC",
  "quadrantDesc": "SouthWest Corner",
  "state": "NY",
  "latitude": 40.757285,
  "longitude": -73.83417,
  "timezone": "EST"
 },
 {
  "storeType": "Store",
  "type": "General Merchandise",
  "tNumber": "T1441",
  "neighborhood": "Somerville",
  "address": "180 Somerville Ave",
  "city": "Somerville",
  "country": "United States of America",
  "mailCode": "US",
  "county": "Middlesex",
  "intersectionDesc": "Medford St & Somerville Av",
  "postal": 2143,
  "postalZip": 3405,
  "quadrant": "SWC",
  "quadrantDesc": "SouthWest Corner",
  "state": "MA",
  "latitude": 42.376695,
  "longitude": -71.090028,
  "timezone": "EST"
 },
 {
  "storeType": "Store",
  "type": "General Merchandise",
  "tNumber": "T1191",
  "neighborhood": "South Setauket",
  "address": "255 Pond Path Rd",
  "city": "South Setauket",
  "country": "United States of America",
  "mailCode": "US",
  "county": "Suffolk",
  "intersectionDesc": "Hwy 347 & Pond Path Dr",
  "postal": 11720,
  "postalZip": 2007,
  "quadrant": "SEC",
  "quadrantDesc": "SouthEast Corner",
  "state": "NY",
  "latitude": 40.88487,
  "longitude": -73.09976,
  "timezone": "EST"
 },
 {
  "storeType": "Store",
  "type": "General Merchandise",
  "tNumber": "T1150",
  "neighborhood": "College Point",
  "address": "13505 20th Ave",
  "city": "College Point",
  "country": "United States of America",
  "mailCode": "US",
  "county": "Queens",
  "intersectionDesc": "20th Ave & 132nd St",
  "postal": 11356,
  "postalZip": 2446,
  "quadrant": "NEC",
  "quadrantDesc": "NorthEast Corner",
  "state": "NY",
  "latitude": 40.783388,
  "longitude": -73.833095,
  "timezone": "EST"
 },
 {
  "storeType": "Store",
  "type": "General Merchandise",
  "tNumber": "T1898",
  "neighborhood": "Boston South Bay",
  "address": "7 Allstate Rd",
  "city": "Dorchester",
  "country": "United States of America",
  "mailCode": "US",
  "county": "Suffolk",
  "intersectionDesc": "I-93 & Southampton St",
  "postal": 2125,
  "postalZip": 1663,
  "quadrant": "SWC",
  "quadrantDesc": "SouthWest Corner",
  "state": "MA",
  "latitude": 42.328872,
  "longitude": -71.062845,
  "timezone": "EST"
 },
 {
  "storeType": "Store",
  "type": "General Merchandise",
  "tNumber": "T1476",
  "neighborhood": "Fayetteville",
  "address": "340 Towne Dr",
  "city": "Fayetteville",
  "country": "United States of America",
  "mailCode": "US",
  "county": "Onondaga",
  "intersectionDesc": "Rte 5 & Burdick St",
  "postal": 13066,
  "postalZip": 1371,
  "quadrant": "NWC",
  "quadrantDesc": "NorthWest Corner",
  "state": "NY",
  "latitude": 43.031849,
  "longitude": -76.019782,
  "timezone": "EST"
 },
 {
  "storeType": "Store",
  "type": "General Merchandise",
  "tNumber": "T1955",
  "neighborhood": "Orange",
  "address": "25 Boston Post Rd",
  "city": "Orange",
  "country": "United States of America",
  "mailCode": "US",
  "county": "New Haven",
  "intersectionDesc": "Hwy 1 & Dogwood Rd",
  "postal": 6477,
  "postalZip": 3203,
  "quadrant": "NWC",
  "quadrantDesc": "NorthWest Corner",
  "state": "CT",
  "latitude": 41.280278,
  "longitude": -72.987515,
  "timezone": "EST"
 },
 {
  "storeType": "Store",
  "type": "General Merchandise",
  "tNumber": "T1849",
  "neighborhood": "Atlantic Terminal",
  "address": "139 Flatbush Ave",
  "city": "Brooklyn",
  "country": "United States of America",
  "mailCode": "US",
  "county": "Kings",
  "intersectionDesc": "FlatbushAve & AtlanticAve",
  "postal": 11217,
  "postalZip": 1403,
  "quadrant": "NEC",
  "quadrantDesc": "NorthEast Corner",
  "state": "NY",
  "latitude": 40.684489,
  "longitude": -73.97748,
  "timezone": "EST"
 },
 {
  "storeType": "Store",
  "type": "General Merchandise",
  "tNumber": "T1358",
  "neighborhood": "White Plains",
  "address": "9 City Pl",
  "city": "White Plains",
  "country": "United States of America",
  "mailCode": "US",
  "county": "Westchester",
  "intersectionDesc": "Main St & Marmaroneck Ave",
  "postal": 10601,
  "postalZip": 3331,
  "quadrant": "SEC",
  "quadrantDesc": "SouthEast Corner",
  "state": "NY",
  "latitude": 41.03208,
  "longitude": -73.7661,
  "timezone": "EST"
 },
 {
  "storeType": "Store",
  "type": "General Merchandise",
  "tNumber": "T1948",
  "neighborhood": "Medford",
  "address": "2975 Horseblock Rd",
  "city": "Medford",
  "country": "United States of America",
  "mailCode": "US",
  "county": "Suffolk",
  "intersectionDesc": "Long Island Expry & Rt 112",
  "postal": 11763,
  "postalZip": 2526,
  "quadrant": "NEC",
  "quadrantDesc": "NorthEast Corner",
  "state": "NY",
  "latitude": 40.824959,
  "longitude": -72.988953,
  "timezone": "EST"
 },
 {
  "storeType": "Store",
  "type": "General Merchandise",
  "tNumber": "T1474",
  "neighborhood": "Dickson City",
  "address": "1140 Commerce Blvd",
  "city": "Dickson City",
  "country": "United States of America",
  "mailCode": "US",
  "county": "Lackawanna",
  "intersectionDesc": "Bus Rte 6 & Commerce Blvd",
  "postal": 18519,
  "postalZip": 1688,
  "quadrant": "SEC",
  "quadrantDesc": "SouthEast Corner",
  "state": "PA",
  "latitude": 41.46711,
  "longitude": -75.639079,
  "timezone": "EST"
 },
 {
  "storeType": "Store",
  "type": "General Merchandise",
  "tNumber": "T2850",
  "neighborhood": "Brooklyn Fulton St",
  "address": "445 Albee Square West",
  "city": "BROOKLYN",
  "country": "United States of America",
  "mailCode": "US",
  "county": "Kings",
  "intersectionDesc": "Flatbush & Fulton",
  "postal": 11201,
  "postalZip": 3016,
  "quadrant": "NWC",
  "quadrantDesc": "NorthWest Corner",
  "state": "NY",
  "latitude": 40.6906,
  "longitude": -73.983,
  "timezone": "EST"
 },
 {
  "storeType": "Store",
  "type": "General Merchandise",
  "tNumber": "T1373",
  "neighborhood": "Meriden",
  "address": "474 Chamberlain Hwy",
  "city": "Meriden",
  "country": "United States of America",
  "mailCode": "US",
  "county": "New Haven",
  "intersectionDesc": "Hwy 71 & Cold Spring Rd",
  "postal": 6451,
  "postalZip": 1818,
  "quadrant": "SWC",
  "quadrantDesc": "SouthWest Corner",
  "state": "CT",
  "latitude": 41.55254,
  "longitude": -72.815454,
  "timezone": "EST"
 },
 {
  "storeType": "Store",
  "type": "General Merchandise",
  "tNumber": "T1475",
  "neighborhood": "Clay",
  "address": "3857 State Route 31",
  "city": "Liverpool",
  "country": "United States of America",
  "mailCode": "US",
  "county": "Onondaga",
  "intersectionDesc": "Rte 31 & Rte 481",
  "postal": 13090,
  "postalZip": 1309,
  "quadrant": "NWC",
  "quadrantDesc": "NorthWest Corner",
  "state": "NY",
  "latitude": 43.187797,
  "longitude": -76.247107,
  "timezone": "EST"
 },
 {
  "storeType": "Store",
  "type": "General Merchandise",
  "tNumber": "T2305",
  "neighborhood": "Torrington",
  "address": "1922 E Main St",
  "city": "Torrington",
  "country": "United States of America",
  "mailCode": "US",
  "county": "Litchfield",
  "intersectionDesc": "US 202 & Torringford East Rd",
  "postal": 6790,
  "postalZip": 3101,
  "quadrant": "SWC",
  "quadrantDesc": "SouthWest Corner",
  "state": "CT",
  "latitude": 41.81886,
  "longitude": -73.0755,
  "timezone": "EST"
 },
 {
  "storeType": "Store",
  "type": "General Merchandise",
  "tNumber": "T2840",
  "neighborhood": "Valley Stream",
  "address": "500 W Sunrise Hwy",
  "city": "Valley Stream",
  "country": "United States of America",
  "mailCode": "US",
  "county": "Nassau",
  "intersectionDesc": "Green Acres & Sunrise Hwy",
  "postal": 11581,
  "postalZip": 1001,
  "quadrant": "SEC",
  "quadrantDesc": "SouthEast Corner",
  "state": "NY",
  "latitude": 40.66425,
  "longitude": -73.7201,
  "timezone": "EST"
 },
 {
  "storeType": "Store",
  "type": "General Merchandise",
  "tNumber": "T2805",
  "neighborhood": "Glenville",
  "address": "204 Saratoga Rd",
  "city": "Schenectady",
  "country": "United States of America",
  "mailCode": "US",
  "county": "Schenectady",
  "intersectionDesc": "Saratoga Rd (Hwy 50) & Glendridge Rd",
  "postal": 12302,
  "postalZip": 4509,
  "quadrant": "SEC",
  "quadrantDesc": "SouthEast Corner",
  "state": "NY",
  "latitude": 42.866616,
  "longitude": -73.930923,
  "timezone": "EST"
 },
 {
  "storeType": "Store",
  "type": "General Merchandise",
  "tNumber": "T2253",
  "neighborhood": "Watertown",
  "address": "21800 Towne Center Dr",
  "city": "Watertown",
  "country": "United States of America",
  "mailCode": "US",
  "county": "Jefferson",
  "intersectionDesc": "I-81 & Rt 3",
  "postal": 13601,
  "postalZip": 5898,
  "quadrant": "SWC",
  "quadrantDesc": "SouthWest Corner",
  "state": "NY",
  "latitude": 43.970236,
  "longitude": -75.962716,
  "timezone": "EST"
 },
 {
  "storeType": "Store",
  "type": "General Merchandise",
  "tNumber": "T1308",
  "neighborhood": "Framingham",
  "address": "400 Cochituate Rd",
  "city": "Framingham",
  "country": "United States of America",
  "mailCode": "US",
  "county": "Middlesex",
  "intersectionDesc": "Rte 30 & Whittier St",
  "postal": 1701,
  "postalZip": 4655,
  "quadrant": "NWC",
  "quadrantDesc": "NorthWest Corner",
  "state": "MA",
  "latitude": 42.305328,
  "longitude": -71.398387,
  "timezone": "EST"
 },
 {
  "storeType": "Store",
  "type": "General Merchandise",
  "tNumber": "T1866",
  "neighborhood": "Farmingdale",
  "address": "100 Willow Park Ctr",
  "city": "Farmingdale",
  "country": "United States of America",
  "mailCode": "US",
  "county": "Suffolk",
  "intersectionDesc": "Rt 110 & Milbar Blvd",
  "postal": 11735,
  "postalZip": 1001,
  "quadrant": "NEC",
  "quadrantDesc": "NorthEast Corner",
  "state": "NY",
  "latitude": 40.750961,
  "longitude": -73.419407,
  "timezone": "EST"
 },
 {
  "storeType": "Store",
  "type": "General Merchandise",
  "tNumber": "T1885",
  "neighborhood": "Hicksville",
  "address": "2003 Broadway Mall",
  "city": "Hicksville",
  "country": "United States of America",
  "mailCode": "US",
  "county": "Nassau",
  "intersectionDesc": "Broadway & W John St",
  "postal": 11801,
  "postalZip": 2719,
  "quadrant": "NWC",
  "quadrantDesc": "NorthWest Corner",
  "state": "NY",
  "latitude": 40.771682,
  "longitude": -73.532945,
  "timezone": "EST"
 },
 {
  "storeType": "Store",
  "type": "General Merchandise",
  "tNumber": "T2312",
  "neighborhood": "Springfield West",
  "address": "1200 Baltimore Pike",
  "city": "Springfield",
  "country": "United States of America",
  "mailCode": "US",
  "county": "Delaware",
  "intersectionDesc": "Baltimore Pike & Rt 320\/Sproul Rd",
  "postal": 19064,
  "postalZip": 2701,
  "quadrant": "NWC",
  "quadrantDesc": "NorthWest Corner",
  "state": "PA",
  "latitude": 39.914902,
  "longitude": -75.350763,
  "timezone": "EST"
 },
 {
  "storeType": "Store",
  "type": "General Merchandise",
  "tNumber": "T2024",
  "neighborhood": "Monroe",
  "address": "128 Bailey Farm Rd",
  "city": "Monroe",
  "country": "United States of America",
  "mailCode": "US",
  "county": "Orange",
  "intersectionDesc": "Rt 17 & Larkin Dr",
  "postal": 10950,
  "postalZip": 4949,
  "quadrant": "SWC",
  "quadrantDesc": "SouthWest Corner",
  "state": "NY",
  "latitude": 41.317851,
  "longitude": -74.1533,
  "timezone": "EST"
 },
 {
  "storeType": "Store",
  "type": "General Merchandise",
  "tNumber": "T2102",
  "neighborhood": "Central Islip",
  "address": "160 N Research Pl",
  "city": "Central Islip",
  "country": "United States of America",
  "mailCode": "US",
  "county": "Suffolk",
  "intersectionDesc": "Carleton Ave & N Research Pl",
  "postal": 11722,
  "postalZip": 4458,
  "quadrant": "SWC",
  "quadrantDesc": "SouthWest Corner",
  "state": "NY",
  "latitude": 40.772668,
  "longitude": -73.202259,
  "timezone": "EST"
 },
 {
  "storeType": "Store",
  "type": "General Merchandise",
  "tNumber": "T1296",
  "neighborhood": "Middletown",
  "address": "1 N Galleria Dr",
  "location.address.2": "Ste 140",
  "city": "Middletown",
  "country": "United States of America",
  "mailCode": "US",
  "county": "Orange",
  "intersectionDesc": "I-84 & Rt 17",
  "postal": 10941,
  "postalZip": 3029,
  "quadrant": "NEC",
  "quadrantDesc": "NorthEast Corner",
  "state": "NY",
  "latitude": 41.452284,
  "longitude": -74.369057,
  "timezone": "EST"
 },
 {
  "storeType": "Store",
  "type": "General Merchandise",
  "tNumber": "T1056",
  "neighborhood": "Binghamton Vestal",
  "address": "3112 Vestal Pkwy E",
  "city": "Vestal",
  "country": "United States of America",
  "mailCode": "US",
  "county": "Broome",
  "intersectionDesc": "Hwy 434 & Rand Blvd",
  "postal": 13850,
  "postalZip": 2038,
  "quadrant": "SEC",
  "quadrantDesc": "SouthEast Corner",
  "state": "NY",
  "latitude": 42.094186,
  "longitude": -76.001181,
  "timezone": "EST"
 },
 {
  "storeType": "Store",
  "type": "General Merchandise",
  "tNumber": "T2045",
  "neighborhood": "Milford",
  "address": "1191 Boston Post Rd",
  "city": "Milford",
  "country": "United States of America",
  "mailCode": "US",
  "county": "New Haven",
  "intersectionDesc": "I-95 & Rt 1",
  "postal": 6460,
  "postalZip": 2763,
  "quadrant": "NEC",
  "quadrantDesc": "NorthEast Corner",
  "state": "CT",
  "latitude": 41.235174,
  "longitude": -73.038092,
  "timezone": "EST"
 },
 {
  "storeType": "Store",
  "type": "General Merchandise",
  "tNumber": "T1798",
  "neighborhood": "Bronx Riverdale",
  "address": "40 W 225th St",
  "location.address.2": "#50",
  "city": "Bronx",
  "country": "United States of America",
  "mailCode": "US",
  "county": "Bronx",
  "intersectionDesc": "I-87 & Kingsbridge Rd",
  "postal": 10463,
  "postalZip": 7016,
  "quadrant": "SWC",
  "quadrantDesc": "SouthWest Corner",
  "state": "NY",
  "latitude": 40.87353,
  "longitude": -73.907803,
  "timezone": "EST"
 },
 {
  "storeType": "Store",
  "type": "General Merchandise",
  "tNumber": "T2461",
  "neighborhood": "Amsterdam",
  "address": "100 Amsterdam Commons",
  "city": "Amsterdam",
  "country": "United States of America",
  "mailCode": "US",
  "county": "Montgomery",
  "intersectionDesc": "Rte 30 & Golf Course Rd",
  "postal": 12010,
  "postalZip": 7565,
  "quadrant": "SWC",
  "quadrantDesc": "SouthWest Corner",
  "state": "NY",
  "latitude": 42.965271,
  "longitude": -74.190215,
  "timezone": "EST"
 },
 {
  "storeType": "Store",
  "type": "General Merchandise",
  "tNumber": "T1496",
  "neighborhood": "Westborough",
  "address": "330 Turnpike Rd",
  "city": "Westborough",
  "country": "United States of America",
  "mailCode": "US",
  "county": "Worcester",
  "intersectionDesc": "Rte 9 & Otis St",
  "postal": 1581,
  "postalZip": 2813,
  "quadrant": "SWC",
  "quadrantDesc": "SouthWest Corner",
  "state": "MA",
  "latitude": 42.280435,
  "longitude": -71.655929,
  "timezone": "EST"
 },
 {
  "storeType": "Store",
  "type": "General Merchandise",
  "tNumber": "T2380",
  "neighborhood": "Harlem 117th St",
  "address": "517 E 117th Street",
  "location.address.2": "Suite 201",
  "city": "New York",
  "country": "United States of America",
  "mailCode": "US",
  "county": "New York",
  "intersectionDesc": "FDR Dr & E 116th St",
  "postal": 10035,
  "postalZip": 4410,
  "quadrant": "NWC",
  "quadrantDesc": "NorthWest Corner",
  "state": "NY",
  "latitude": 40.795561,
  "longitude": -73.931192,
  "timezone": "EST"
 },
 {
  "storeType": "Store",
  "type": "General Merchandise",
  "tNumber": "T1954",
  "neighborhood": "Mt Kisco",
  "address": "195 N Bedford Rd Ste A",
  "city": "Mount Kisco",
  "country": "United States of America",
  "mailCode": "US",
  "county": "Westchester",
  "intersectionDesc": "Bedford Rd & Preston Way",
  "postal": 10549,
  "postalZip": 1104,
  "quadrant": "NWC",
  "quadrantDesc": "NorthWest Corner",
  "state": "NY",
  "latitude": 41.216197,
  "longitude": -73.722746,
  "timezone": "EST"
 },
 {
  "storeType": "Store",
  "type": "General Merchandise",
  "tNumber": "T1528",
  "neighborhood": "Bethel",
  "address": "7 Stony Hill Rd",
  "city": "Bethel",
  "country": "United States of America",
  "mailCode": "US",
  "county": "Fairfield",
  "intersectionDesc": "Sky Edge Ln & Hwy 6",
  "postal": 6801,
  "postalZip": 1030,
  "quadrant": "SEC",
  "quadrantDesc": "SouthEast Corner",
  "state": "CT",
  "latitude": 41.415022,
  "longitude": -73.401914,
  "timezone": "EST"
 },
 {
  "storeType": "Store",
  "type": "General Merchandise",
  "tNumber": "T1344",
  "neighborhood": "Queens Place",
  "address": "8801 Queens Blvd",
  "city": "Elmhurst",
  "country": "United States of America",
  "mailCode": "US",
  "county": "Queens",
  "intersectionDesc": "Queens Blvd & 56th Ave",
  "postal": 11373,
  "postalZip": 4449,
  "quadrant": "NEC",
  "quadrantDesc": "NorthEast Corner",
  "state": "NY",
  "latitude": 40.73533,
  "longitude": -73.8749,
  "timezone": "EST"
 },
 {
  "storeType": "Store",
  "type": "General Merchandise",
  "tNumber": "T2432",
  "neighborhood": "Killingly",
  "address": "2177 Killingly Cmns",
  "city": "Dayville",
  "country": "United States of America",
  "mailCode": "US",
  "county": "Windham",
  "intersectionDesc": "I-395 & Rt 101",
  "postal": 6241,
  "postalZip": 2188,
  "quadrant": "SWC",
  "quadrantDesc": "SouthWest Corner",
  "state": "CT",
  "latitude": 41.839019,
  "longitude": -71.883778,
  "timezone": "EST"
 },
 {
  "storeType": "Store",
  "type": "General Merchandise",
  "tNumber": "T1156",
  "neighborhood": "Victor",
  "address": "7500 Commons Blvd",
  "city": "Victor",
  "country": "United States of America",
  "mailCode": "US",
  "county": "Ontario",
  "intersectionDesc": "Rtes 96 & 250",
  "postal": 14564,
  "postalZip": 1010,
  "quadrant": "SEC",
  "quadrantDesc": "SouthEast Corner",
  "state": "NY",
  "latitude": 43.033533,
  "longitude": -77.448691,
  "timezone": "EST"
 },
 {
  "storeType": "Store",
  "type": "General Merchandise",
  "tNumber": "T1148",
  "neighborhood": "Bay Shore",
  "address": "838 Sunrise Hwy",
  "city": "Bay Shore",
  "country": "United States of America",
  "mailCode": "US",
  "county": "Suffolk",
  "intersectionDesc": "Hwy 27 & Manor Lane",
  "postal": 11706,
  "postalZip": 5908,
  "quadrant": "SEC",
  "quadrantDesc": "SouthEast Corner",
  "state": "NY",
  "latitude": 40.726529,
  "longitude": -73.277038,
  "timezone": "EST"
 },
 {
  "storeType": "Store",
  "type": "General Merchandise",
  "tNumber": "T2166",
  "neighborhood": "Biddeford",
  "address": "430 Mariner Way",
  "city": "Biddeford",
  "country": "United States of America",
  "mailCode": "US",
  "county": "York",
  "intersectionDesc": "I-95 & Rt 111",
  "postal": 4005,
  "postalZip": 9440,
  "quadrant": "SWC",
  "quadrantDesc": "SouthWest Corner",
  "state": "ME",
  "latitude": 43.474,
  "longitude": -70.5141,
  "timezone": "EST"
 },
 {
  "storeType": "Store",
  "type": "General Merchandise",
  "tNumber": "T2822",
  "neighborhood": "Boston Fenway",
  "address": "1341 BOYLSTON ST",
  "city": "Boston",
  "country": "United States of America",
  "mailCode": "US",
  "county": "Suffolk",
  "intersectionDesc": "Boyston St. & Kimarnock St.",
  "postal": 2215,
  "postalZip": 3936,
  "quadrant": "NEC",
  "quadrantDesc": "NorthEast Corner",
  "state": "MA",
  "latitude": 42.344172,
  "longitude": -71.099961,
  "timezone": "EST"
 },
 {
  "storeType": "Store",
  "type": "General Merchandise",
  "tNumber": "T2729",
  "neighborhood": "Wilmington",
  "address": "210 Ballardvale St",
  "city": "Wilmington",
  "country": "United States of America",
  "mailCode": "US",
  "county": "Middlesex",
  "intersectionDesc": "I-93 & Rte 125",
  "postal": 1887,
  "postalZip": 1045,
  "quadrant": "NEC",
  "quadrantDesc": "NorthEast Corner",
  "state": "MA",
  "latitude": 42.589718,
  "longitude": -71.159895,
  "timezone": "EST"
 },
 {
  "storeType": "Store",
  "type": "General Merchandise",
  "tNumber": "T2127",
  "neighborhood": "Lanesborough",
  "address": "655 Cheshire Rd",
  "city": "Lanesborough",
  "country": "United States of America",
  "mailCode": "US",
  "county": "Berkshire",
  "intersectionDesc": "Rt. 8 & Swamp Rd.",
  "postal": 1237,
  "postalZip": 9501,
  "quadrant": "SWC",
  "quadrantDesc": "SouthWest Corner",
  "state": "MA",
  "latitude": 42.495264,
  "longitude": -73.206116,
  "timezone": "EST"
 },
 {
  "storeType": "Store",
  "type": "General Merchandise",
  "tNumber": "T2249",
  "neighborhood": "Ansonia",
  "address": "20 W Main St",
  "city": "Ansonia",
  "country": "United States of America",
  "mailCode": "US",
  "county": "New Haven",
  "intersectionDesc": "W Main St & Bridge St",
  "postal": 6401,
  "postalZip": 1812,
  "quadrant": "SWC",
  "quadrantDesc": "SouthWest Corner",
  "state": "CT",
  "latitude": 41.340446,
  "longitude": -73.078943,
  "timezone": "EST"
 },
 {
  "storeType": "Store",
  "type": "General Merchandise",
  "tNumber": "T1401",
  "neighborhood": "Gateway",
  "address": "519 Gateway Dr",
  "city": "Brooklyn",
  "country": "United States of America",
  "mailCode": "US",
  "county": "Kings",
  "intersectionDesc": "Belt Pkwy & Erskine",
  "postal": 11239,
  "postalZip": 2801,
  "quadrant": "NWC",
  "quadrantDesc": "NorthWest Corner",
  "state": "NY",
  "latitude": 40.652462,
  "longitude": -73.870271,
  "timezone": "EST"
 },
 {
  "storeType": "Store",
  "type": "General Merchandise",
  "tNumber": "T2847",
  "neighborhood": "Sayville",
  "address": "5750 Sunrise Hwy",
  "city": "Sayville",
  "country": "United States of America",
  "mailCode": "US",
  "county": "Suffolk",
  "intersectionDesc": "Sunrise Highway S.R. 27 & Broadway",
  "postal": 11782,
  "postalZip": 1010,
  "quadrant": "SWC",
  "quadrantDesc": "SouthWest Corner",
  "state": "NY",
  "latitude": 40.76651,
  "longitude": -73.067159,
  "timezone": "EST"
 },
 {
  "storeType": "Store",
  "type": "General Merchandise",
  "tNumber": "T1229",
  "neighborhood": "Everett",
  "address": "1 Mystic View Rd",
  "city": "Everett",
  "country": "United States of America",
  "mailCode": "US",
  "county": "Middlesex",
  "intersectionDesc": "Rte 16 & Mystic View Rd",
  "postal": 2149,
  "postalZip": 2428,
  "quadrant": "SEC",
  "quadrantDesc": "SouthEast Corner",
  "state": "MA",
  "latitude": 42.399035,
  "longitude": -71.071855,
  "timezone": "EST"
 },
 {
  "storeType": "Store",
  "type": "General Merchandise",
  "tNumber": "T2156",
  "neighborhood": "Waterbury",
  "address": "300 Chase Ave",
  "city": "Waterbury",
  "country": "United States of America",
  "mailCode": "US",
  "county": "New Haven",
  "intersectionDesc": "Chase Ave & Wigwam Ave",
  "postal": 6704,
  "postalZip": 2246,
  "quadrant": "NEC",
  "quadrantDesc": "NorthEast Corner",
  "state": "CT",
  "latitude": 41.58254,
  "longitude": -73.034321,
  "timezone": "EST"
 },
 {
  "storeType": "Store",
  "type": "General Merchandise",
  "tNumber": "T1195",
  "neighborhood": "Penfield",
  "address": "2161 N Nine Mile Point Rd",
  "city": "Fairport",
  "country": "United States of America",
  "mailCode": "US",
  "county": "Monroe",
  "intersectionDesc": "Penfield Rd & Rte 250",
  "postal": 14450,
  "postalZip": 8509,
  "quadrant": "SWC",
  "quadrantDesc": "SouthWest Corner",
  "state": "NY",
  "latitude": 43.128391,
  "longitude": -77.443196,
  "timezone": "EST"
 },
 {
  "storeType": "Store",
  "type": "General Merchandise",
  "tNumber": "T2295",
  "neighborhood": "Cicero",
  "address": "8061 Brewerton Rd",
  "city": "Cicero",
  "country": "United States of America",
  "mailCode": "US",
  "county": "Onondaga",
  "intersectionDesc": "US Rte 11 & Stevens Dr",
  "postal": 13039,
  "postalZip": 8061,
  "quadrant": "SWC",
  "quadrantDesc": "SouthWest Corner",
  "state": "NY",
  "latitude": 43.161815,
  "longitude": -76.122579,
  "timezone": "EST"
 },
 {
  "storeType": "Store",
  "type": "General Merchandise",
  "tNumber": "T1492",
  "neighborhood": "New Hartford",
  "address": "1 Sangertown Sq Ste 3",
  "city": "New Hartford",
  "country": "United States of America",
  "mailCode": "US",
  "county": "Oneida",
  "intersectionDesc": "Rt. 5 & 5A",
  "postal": 13413,
  "postalZip": 1595,
  "quadrant": "NEC",
  "quadrantDesc": "NorthEast Corner",
  "state": "NY",
  "latitude": 43.083646,
  "longitude": -75.315158,
  "timezone": "EST"
 },
 {
  "storeType": "Store",
  "type": "General Merchandise",
  "tNumber": "T1521",
  "neighborhood": "Niskayuna",
  "address": "428 Balltown Rd",
  "city": "Schenectady",
  "country": "United States of America",
  "mailCode": "US",
  "county": "Schenectady",
  "intersectionDesc": "Balltown Rd & Hwy 5",
  "postal": 12304,
  "postalZip": 2245,
  "quadrant": "NEC",
  "quadrantDesc": "NorthEast Corner",
  "state": "NY",
  "latitude": 42.77571,
  "longitude": -73.8901,
  "timezone": "EST"
 },
 {
  "storeType": "Store",
  "type": "General Merchandise",
  "tNumber": "T1442",
  "neighborhood": "Watertown",
  "address": "550 Arsenal St",
  "city": "Watertown",
  "country": "United States of America",
  "mailCode": "US",
  "county": "Middlesex",
  "intersectionDesc": "Arsenal St & Elm St",
  "postal": 2472,
  "postalZip": 2853,
  "quadrant": "NWC",
  "quadrantDesc": "NorthWest Corner",
  "state": "MA",
  "latitude": 42.364178,
  "longitude": -71.156462,
  "timezone": "EST"
 },
 {
  "storeType": "Store",
  "type": "General Merchandise",
  "tNumber": "T2361",
  "neighborhood": "Trumbull West",
  "address": "5065 Main St",
  "location.address.2": "Ste Target",
  "city": "Trumbull",
  "country": "United States of America",
  "mailCode": "US",
  "county": "Fairfield",
  "intersectionDesc": "Merritt Pkwy & Main St",
  "postal": 6611,
  "postalZip": 4204,
  "quadrant": "SWC",
  "quadrantDesc": "SouthWest Corner",
  "state": "CT",
  "latitude": 41.228735,
  "longitude": -73.225326,
  "timezone": "EST"
 },
 {
  "storeType": "Store",
  "type": "General Merchandise",
  "tNumber": "T1268",
  "neighborhood": "Colonie Northway",
  "address": "1440 Central Ave",
  "city": "Colonie",
  "country": "United States of America",
  "mailCode": "US",
  "county": "Albany",
  "intersectionDesc": "I-87 & Rt 5",
  "postal": 12205,
  "postalZip": 5118,
  "quadrant": "SEC",
  "quadrantDesc": "SouthEast Corner",
  "state": "NY",
  "latitude": 42.705805,
  "longitude": -73.823925,
  "timezone": "EST"
 },